{
    "type": "FeatureCollection",
    "features": [
        {
            "type": "Feature",
            "geometry": {
                "type": "Point",
                "coordinates": [
                    -52.784,
                    68.721
                ]
            },
            "properties": {
                "siteID": "BGAA",
                "name": "Aasiaat Arpt",
                "elev": 27,
                "priority": 4
            }
        },
        {
            "type": "Feature",
            "geometry": {
                "type": "Point",
                "coordinates": [
                    -49.669,
                    62.013
                ]
            },
            "properties": {
                "siteID": "BGFH",
                "name": "Frederikshaab",
                "elev": 48,
                "priority": 9
            }
        },
        {
            "type": "Feature",
            "geometry": {
                "type": "Point",
                "coordinates": [
                    -48.111,
                    61.222
                ]
            },
            "properties": {
                "siteID": "BGGD",
                "name": "Groennedal",
                "elev": 29,
                "priority": 9
            }
        },
        {
            "type": "Feature",
            "geometry": {
                "type": "Point",
                "coordinates": [
                    -51.677,
                    64.191
                ]
            },
            "properties": {
                "siteID": "BGGH",
                "name": "Godthab/Nuuk Arpt",
                "elev": 76,
                "priority": 1
            }
        },
        {
            "type": "Feature",
            "geometry": {
                "type": "Point",
                "coordinates": [
                    -53.67,
                    66.92
                ]
            },
            "properties": {
                "siteID": "BGHB",
                "name": "Holsteinsborg",
                "elev": 9,
                "priority": 9
            }
        },
        {
            "type": "Feature",
            "geometry": {
                "type": "Point",
                "coordinates": [
                    -51.064,
                    69.24
                ]
            },
            "properties": {
                "siteID": "BGJN",
                "name": "Ilulissat Arpt",
                "elev": 22,
                "priority": 2
            }
        },
        {
            "type": "Feature",
            "geometry": {
                "type": "Point",
                "coordinates": [
                    -52.934,
                    65.412
                ]
            },
            "properties": {
                "siteID": "BGMQ",
                "name": "Maniitsoq Arpt",
                "elev": 21,
                "priority": 3
            }
        },
        {
            "type": "Feature",
            "geometry": {
                "type": "Point",
                "coordinates": [
                    -49.669,
                    62.013
                ]
            },
            "properties": {
                "siteID": "BGPT",
                "name": "Paamiut Arpt",
                "elev": 48,
                "priority": 3
            }
        },
        {
            "type": "Feature",
            "geometry": {
                "type": "Point",
                "coordinates": [
                    -69.375,
                    77.486
                ]
            },
            "properties": {
                "siteID": "BGQQ",
                "name": "Qaanaaq Arpt",
                "elev": 17,
                "priority": 1
            }
        },
        {
            "type": "Feature",
            "geometry": {
                "type": "Point",
                "coordinates": [
                    -53.723,
                    66.951
                ]
            },
            "properties": {
                "siteID": "BGSS",
                "name": "Sisimiut Arpt",
                "elev": 34,
                "priority": 3
            }
        },
        {
            "type": "Feature",
            "geometry": {
                "type": "Point",
                "coordinates": [
                    -56.129,
                    72.798
                ]
            },
            "properties": {
                "siteID": "BGUK",
                "name": "Upernavik Arpt",
                "elev": 12,
                "priority": 0
            }
        },
        {
            "type": "Feature",
            "geometry": {
                "type": "Point",
                "coordinates": [
                    -52.695,
                    70.733
                ]
            },
            "properties": {
                "siteID": "BGUQ",
                "name": "Uummanaq Arpt",
                "elev": 112,
                "priority": 3
            }
        },
        {
            "type": "Feature",
            "geometry": {
                "type": "Point",
                "coordinates": [
                    -72.774,
                    45.373
                ]
            },
            "properties": {
                "siteID": "CMGB",
                "name": "Granby",
                "elev": 87,
                "priority": 5
            }
        },
        {
            "type": "Feature",
            "geometry": {
                "type": "Point",
                "coordinates": [
                    -74.963,
                    45.251
                ]
            },
            "properties": {
                "siteID": "CTCK",
                "name": "Moose Creek",
                "elev": 84,
                "priority": 5
            }
        },
        {
            "type": "Feature",
            "geometry": {
                "type": "Point",
                "coordinates": [
                    -72.31,
                    18.57
                ]
            },
            "properties": {
                "siteID": "CTPP",
                "name": "Camp Canargus",
                "elev": 38,
                "priority": 9
            }
        },
        {
            "type": "Feature",
            "geometry": {
                "type": "Point",
                "coordinates": [
                    -93.733,
                    49.664
                ]
            },
            "properties": {
                "siteID": "CTRA",
                "name": "Rawson Lake(AUTO)",
                "elev": 432,
                "priority": 5
            }
        },
        {
            "type": "Feature",
            "geometry": {
                "type": "Point",
                "coordinates": [
                    -88.87,
                    48.3
                ]
            },
            "properties": {
                "siteID": "CWAB",
                "name": "Trowbridge (MAP",
                "elev": 218,
                "priority": 9
            }
        },
        {
            "type": "Feature",
            "geometry": {
                "type": "Point",
                "coordinates": [
                    -124.83,
                    48.67
                ]
            },
            "properties": {
                "siteID": "CWAC",
                "name": "Nitinat Lake (M",
                "elev": 41,
                "priority": 9
            }
        },
        {
            "type": "Feature",
            "geometry": {
                "type": "Point",
                "coordinates": [
                    -125.196,
                    49.999
                ]
            },
            "properties": {
                "siteID": "CWAD",
                "name": "Cape Mudge Light",
                "elev": 4,
                "priority": 9
            }
        },
        {
            "type": "Feature",
            "geometry": {
                "type": "Point",
                "coordinates": [
                    -122.955,
                    50.129
                ]
            },
            "properties": {
                "siteID": "CWAE",
                "name": "Whistler",
                "elev": 658,
                "priority": 4
            }
        },
        {
            "type": "Feature",
            "geometry": {
                "type": "Point",
                "coordinates": [
                    -64.27,
                    45.85
                ]
            },
            "properties": {
                "siteID": "CWAH",
                "name": "Amherst (MARS)",
                "elev": 23,
                "priority": 9
            }
        },
        {
            "type": "Feature",
            "geometry": {
                "type": "Point",
                "coordinates": [
                    -125.541,
                    48.922
                ]
            },
            "properties": {
                "siteID": "CWAN",
                "name": "Amphitrite Poin",
                "elev": 13,
                "priority": 9
            }
        },
        {
            "type": "Feature",
            "geometry": {
                "type": "Point",
                "coordinates": [
                    -128.12,
                    52.18
                ]
            },
            "properties": {
                "siteID": "CWAU",
                "name": "Dryad Point Light",
                "elev": 4,
                "priority": 9
            }
        },
        {
            "type": "Feature",
            "geometry": {
                "type": "Point",
                "coordinates": [
                    -56.081,
                    51.39
                ]
            },
            "properties": {
                "siteID": "CWAX",
                "name": "Saint Anthony",
                "elev": 23,
                "priority": 9
            }
        },
        {
            "type": "Feature",
            "geometry": {
                "type": "Point",
                "coordinates": [
                    -57.63,
                    47.62
                ]
            },
            "properties": {
                "siteID": "CWBF",
                "name": "Burgeo (AUTO)",
                "elev": 12,
                "priority": 9
            }
        },
        {
            "type": "Feature",
            "geometry": {
                "type": "Point",
                "coordinates": [
                    -123.092,
                    51.26
                ]
            },
            "properties": {
                "siteID": "CWBG",
                "name": "Big Creek",
                "elev": 1664,
                "priority": 9
            }
        },
        {
            "type": "Feature",
            "geometry": {
                "type": "Point",
                "coordinates": [
                    -99.9,
                    51.75
                ]
            },
            "properties": {
                "siteID": "CWBL",
                "name": "Bachelors Islan",
                "elev": 256,
                "priority": 9
            }
        },
        {
            "type": "Feature",
            "geometry": {
                "type": "Point",
                "coordinates": [
                    -91.83,
                    66.03
                ]
            },
            "properties": {
                "siteID": "CWBR",
                "name": "Brown Lake",
                "elev": 31,
                "priority": 9
            }
        },
        {
            "type": "Feature",
            "geometry": {
                "type": "Point",
                "coordinates": [
                    -74.289,
                    45.121
                ]
            },
            "properties": {
                "siteID": "CWBZ",
                "name": "St Anicet",
                "elev": 49,
                "priority": 5
            }
        },
        {
            "type": "Feature",
            "geometry": {
                "type": "Point",
                "coordinates": [
                    -106.55,
                    52.15
                ]
            },
            "properties": {
                "siteID": "CWCD",
                "name": "Saskatoon Kerne",
                "elev": 510,
                "priority": 9
            }
        },
        {
            "type": "Feature",
            "geometry": {
                "type": "Point",
                "coordinates": [
                    -121.505,
                    51.145
                ]
            },
            "properties": {
                "siteID": "CWCL",
                "name": "Clinton (MARS)",
                "elev": 1059,
                "priority": 2
            }
        },
        {
            "type": "Feature",
            "geometry": {
                "type": "Point",
                "coordinates": [
                    -99.357,
                    49.906
                ]
            },
            "properties": {
                "siteID": "CWCM",
                "name": "Carberry Mcdc",
                "elev": 380,
                "priority": 9
            }
        },
        {
            "type": "Feature",
            "geometry": {
                "type": "Point",
                "coordinates": [
                    -101.05,
                    78.22
                ]
            },
            "properties": {
                "siteID": "CWCN",
                "name": "Malloch Dome Au",
                "elev": 12,
                "priority": 9
            }
        },
        {
            "type": "Feature",
            "geometry": {
                "type": "Point",
                "coordinates": [
                    -65.466,
                    47.011
                ]
            },
            "properties": {
                "siteID": "CWCQ",
                "name": "Chatham (AUTO8)",
                "elev": 31,
                "priority": 9
            }
        },
        {
            "type": "Feature",
            "geometry": {
                "type": "Point",
                "coordinates": [
                    -73.56,
                    45.42
                ]
            },
            "properties": {
                "siteID": "CWCS",
                "name": "Cote-Ste-Cath M",
                "elev": 17,
                "priority": 9
            }
        },
        {
            "type": "Feature",
            "geometry": {
                "type": "Point",
                "coordinates": [
                    -79.78,
                    44.38
                ]
            },
            "properties": {
                "siteID": "CWCU",
                "name": "Barrie (MARS)",
                "elev": 295,
                "priority": 9
            }
        },
        {
            "type": "Feature",
            "geometry": {
                "type": "Point",
                "coordinates": [
                    -126.615,
                    49.593
                ]
            },
            "properties": {
                "siteID": "CWCV",
                "name": "Nootka LH",
                "elev": 14,
                "priority": 9
            }
        },
        {
            "type": "Feature",
            "geometry": {
                "type": "Point",
                "coordinates": [
                    -117.77,
                    66
                ]
            },
            "properties": {
                "siteID": "CWCX",
                "name": "Clut Lake(AUT)",
                "elev": 185,
                "priority": 9
            }
        },
        {
            "type": "Feature",
            "geometry": {
                "type": "Point",
                "coordinates": [
                    -127.864,
                    51.604
                ]
            },
            "properties": {
                "siteID": "CWCZ",
                "name": "Addenbroke IL",
                "elev": 15,
                "priority": 9
            }
        },
        {
            "type": "Feature",
            "geometry": {
                "type": "Point",
                "coordinates": [
                    -139.032,
                    61.37
                ]
            },
            "properties": {
                "siteID": "CWDB",
                "name": "Burwash (AUTO8)",
                "elev": 807,
                "priority": 9
            }
        },
        {
            "type": "Feature",
            "geometry": {
                "type": "Point",
                "coordinates": [
                    -82.706,
                    42.297
                ]
            },
            "properties": {
                "siteID": "CWDD",
                "name": "Belle River(AUTO)",
                "elev": 184,
                "priority": 9
            }
        },
        {
            "type": "Feature",
            "geometry": {
                "type": "Point",
                "coordinates": [
                    -81.275,
                    44.717
                ]
            },
            "properties": {
                "siteID": "CWDF",
                "name": "Oliphant/Ont",
                "elev": 178,
                "priority": 9
            }
        },
        {
            "type": "Feature",
            "geometry": {
                "type": "Point",
                "coordinates": [
                    -57.581,
                    50.236
                ]
            },
            "properties": {
                "siteID": "CWDH",
                "name": "Daniel's Harbou",
                "elev": 22,
                "priority": 9
            }
        },
        {
            "type": "Feature",
            "geometry": {
                "type": "Point",
                "coordinates": [
                    -130.031,
                    58.423
                ]
            },
            "properties": {
                "siteID": "CWDL",
                "name": "Dease Lake Arpt",
                "elev": 816,
                "priority": 7
            }
        },
        {
            "type": "Feature",
            "geometry": {
                "type": "Point",
                "coordinates": [
                    -80.021,
                    44.52
                ]
            },
            "properties": {
                "siteID": "CWDN",
                "name": "Wasaga Beach(AU",
                "elev": 181,
                "priority": 9
            }
        },
        {
            "type": "Feature",
            "geometry": {
                "type": "Point",
                "coordinates": [
                    -55.38,
                    46.92
                ]
            },
            "properties": {
                "siteID": "CWDS",
                "name": "St. Lawrence",
                "elev": 49,
                "priority": 9
            }
        },
        {
            "type": "Feature",
            "geometry": {
                "type": "Point",
                "coordinates": [
                    -113.5,
                    53.5
                ]
            },
            "properties": {
                "siteID": "CWEG",
                "name": "Alberta Weather",
                "elev": 0,
                "priority": 9
            }
        },
        {
            "type": "Feature",
            "geometry": {
                "type": "Point",
                "coordinates": [
                    -55.1,
                    47.2
                ]
            },
            "properties": {
                "siteID": "CWEJ",
                "name": "Bow Drill III",
                "elev": 0,
                "priority": 9
            }
        },
        {
            "type": "Feature",
            "geometry": {
                "type": "Point",
                "coordinates": [
                    -127.836,
                    51.25
                ]
            },
            "properties": {
                "siteID": "CWEM",
                "name": "Egg Island Light",
                "elev": 14,
                "priority": 9
            }
        },
        {
            "type": "Feature",
            "geometry": {
                "type": "Point",
                "coordinates": [
                    -128.43,
                    50.786
                ]
            },
            "properties": {
                "siteID": "CWES",
                "name": "Cape Scott Light",
                "elev": 14,
                "priority": 9
            }
        },
        {
            "type": "Feature",
            "geometry": {
                "type": "Point",
                "coordinates": [
                    -79.78,
                    44.23
                ]
            },
            "properties": {
                "siteID": "CWET",
                "name": "Egbert (MAPS)",
                "elev": 251,
                "priority": 9
            }
        },
        {
            "type": "Feature",
            "geometry": {
                "type": "Point",
                "coordinates": [
                    -104.47,
                    67.7
                ]
            },
            "properties": {
                "siteID": "CWEV",
                "name": "Ellice River(AU",
                "elev": 42,
                "priority": 9
            }
        },
        {
            "type": "Feature",
            "geometry": {
                "type": "Point",
                "coordinates": [
                    -53.48,
                    46.72
                ]
            },
            "properties": {
                "siteID": "CWFH",
                "name": "St.shotts",
                "elev": 143,
                "priority": 9
            }
        },
        {
            "type": "Feature",
            "geometry": {
                "type": "Point",
                "coordinates": [
                    -109.17,
                    62.72
                ]
            },
            "properties": {
                "siteID": "CWFL",
                "name": "Fort Reliance",
                "elev": 164,
                "priority": 9
            }
        },
        {
            "type": "Feature",
            "geometry": {
                "type": "Point",
                "coordinates": [
                    -125.446,
                    50.333
                ]
            },
            "properties": {
                "siteID": "CWFM",
                "name": "Chatham Point",
                "elev": 24,
                "priority": 9
            }
        },
        {
            "type": "Feature",
            "geometry": {
                "type": "Point",
                "coordinates": [
                    -107.13,
                    57.35
                ]
            },
            "properties": {
                "siteID": "CWFN",
                "name": "Cree Lake (MARS)",
                "elev": 495,
                "priority": 9
            }
        },
        {
            "type": "Feature",
            "geometry": {
                "type": "Point",
                "coordinates": [
                    -121.044,
                    52.29
                ]
            },
            "properties": {
                "siteID": "CWFR",
                "name": "Horsefly River",
                "elev": 873,
                "priority": 9
            }
        },
        {
            "type": "Feature",
            "geometry": {
                "type": "Point",
                "coordinates": [
                    -61.32,
                    52.23
                ]
            },
            "properties": {
                "siteID": "CWFU",
                "name": "Little Macatina",
                "elev": 321,
                "priority": 9
            }
        },
        {
            "type": "Feature",
            "geometry": {
                "type": "Point",
                "coordinates": [
                    -125.8,
                    61.63
                ]
            },
            "properties": {
                "siteID": "CWFV",
                "name": "Virginia Falls",
                "elev": 610,
                "priority": 9
            }
        },
        {
            "type": "Feature",
            "geometry": {
                "type": "Point",
                "coordinates": [
                    -55.48,
                    48.17
                ]
            },
            "properties": {
                "siteID": "CWFY",
                "name": "Conne River",
                "elev": 183,
                "priority": 9
            }
        },
        {
            "type": "Feature",
            "geometry": {
                "type": "Point",
                "coordinates": [
                    -116.984,
                    51.3
                ]
            },
            "properties": {
                "siteID": "CWGE",
                "name": "Golden",
                "elev": 786,
                "priority": 9
            }
        },
        {
            "type": "Feature",
            "geometry": {
                "type": "Point",
                "coordinates": [
                    -84.596,
                    47.247
                ]
            },
            "properties": {
                "siteID": "CWGJ",
                "name": "Montreal River(RADAR)",
                "elev": 459,
                "priority": 9
            }
        },
        {
            "type": "Feature",
            "geometry": {
                "type": "Point",
                "coordinates": [
                    -79.45,
                    48.63
                ]
            },
            "properties": {
                "siteID": "CWGQ",
                "name": "Roquemaure",
                "elev": 269,
                "priority": 9
            }
        },
        {
            "type": "Feature",
            "geometry": {
                "type": "Point",
                "coordinates": [
                    -76,
                    45.317
                ]
            },
            "properties": {
                "siteID": "CWGV",
                "name": "Carp Radar Site",
                "elev": 120,
                "priority": 9
            }
        },
        {
            "type": "Feature",
            "geometry": {
                "type": "Point",
                "coordinates": [
                    -94.704,
                    56.359
                ]
            },
            "properties": {
                "siteID": "CWGX",
                "name": "Gillam",
                "elev": 145,
                "priority": 6
            }
        },
        {
            "type": "Feature",
            "geometry": {
                "type": "Point",
                "coordinates": [
                    -82.902,
                    76.423
                ]
            },
            "properties": {
                "siteID": "CWGZ",
                "name": "Grise Fiord Arpt",
                "elev": 24,
                "priority": 2
            }
        },
        {
            "type": "Feature",
            "geometry": {
                "type": "Point",
                "coordinates": [
                    -114.47,
                    53.45
                ]
            },
            "properties": {
                "siteID": "CWHA",
                "name": "Highvale",
                "elev": 747,
                "priority": 9
            }
        },
        {
            "type": "Feature",
            "geometry": {
                "type": "Point",
                "coordinates": [
                    -113.2,
                    53.42
                ]
            },
            "properties": {
                "siteID": "CWHE",
                "name": "Ellerslie",
                "elev": 694,
                "priority": 9
            }
        },
        {
            "type": "Feature",
            "geometry": {
                "type": "Point",
                "coordinates": [
                    -100.94,
                    53.03
                ]
            },
            "properties": {
                "siteID": "CWHH",
                "name": "Hunters Point M",
                "elev": 256,
                "priority": 3
            }
        },
        {
            "type": "Feature",
            "geometry": {
                "type": "Point",
                "coordinates": [
                    -73.377,
                    45.723
                ]
            },
            "properties": {
                "siteID": "CWHM",
                "name": "Varennes",
                "elev": 20,
                "priority": 6
            }
        },
        {
            "type": "Feature",
            "geometry": {
                "type": "Point",
                "coordinates": [
                    -114.83,
                    68.78
                ]
            },
            "properties": {
                "siteID": "CWHS",
                "name": "Bernard Harbour",
                "elev": 65,
                "priority": 9
            }
        },
        {
            "type": "Feature",
            "geometry": {
                "type": "Point",
                "coordinates": [
                    -57.23,
                    48.58
                ]
            },
            "properties": {
                "siteID": "CWHU",
                "name": "Star Brook",
                "elev": 290,
                "priority": 9
            }
        },
        {
            "type": "Feature",
            "geometry": {
                "type": "Point",
                "coordinates": [
                    -54.88,
                    49.27
                ]
            },
            "properties": {
                "siteID": "CWHW",
                "name": "Comfort Cove",
                "elev": 99,
                "priority": 9
            }
        },
        {
            "type": "Feature",
            "geometry": {
                "type": "Point",
                "coordinates": [
                    -72.25,
                    45.32
                ]
            },
            "properties": {
                "siteID": "CWHY",
                "name": "Mont-Orford",
                "elev": 851,
                "priority": 9
            }
        },
        {
            "type": "Feature",
            "geometry": {
                "type": "Point",
                "coordinates": [
                    -71.84,
                    48.65
                ]
            },
            "properties": {
                "siteID": "CWIA",
                "name": "St-Henri",
                "elev": 103,
                "priority": 9
            }
        },
        {
            "type": "Feature",
            "geometry": {
                "type": "Point",
                "coordinates": [
                    -115.02,
                    64.38
                ]
            },
            "properties": {
                "siteID": "CWIE",
                "name": "Indian River",
                "elev": 478,
                "priority": 9
            }
        },
        {
            "type": "Feature",
            "geometry": {
                "type": "Point",
                "coordinates": [
                    -128.032,
                    50.441
                ]
            },
            "properties": {
                "siteID": "CWIF",
                "name": "Quatsino Light",
                "elev": 30,
                "priority": 9
            }
        },
        {
            "type": "Feature",
            "geometry": {
                "type": "Point",
                "coordinates": [
                    -70.533,
                    47.074
                ]
            },
            "properties": {
                "siteID": "CWIG",
                "name": "Ile Aux Grues Arpt",
                "elev": 12,
                "priority": 6
            }
        },
        {
            "type": "Feature",
            "geometry": {
                "type": "Point",
                "coordinates": [
                    -90.407,
                    49.039
                ]
            },
            "properties": {
                "siteID": "CWIM",
                "name": "Upsala(RADAR)",
                "elev": 492,
                "priority": 9
            }
        },
        {
            "type": "Feature",
            "geometry": {
                "type": "Point",
                "coordinates": [
                    -131.667,
                    56.733
                ]
            },
            "properties": {
                "siteID": "CWIO",
                "name": "Iskut River",
                "elev": 15,
                "priority": 9
            }
        },
        {
            "type": "Feature",
            "geometry": {
                "type": "Point",
                "coordinates": [
                    -110.053,
                    54.751
                ]
            },
            "properties": {
                "siteID": "CWIQ",
                "name": "Primrose Lake",
                "elev": 695,
                "priority": 9
            }
        },
        {
            "type": "Feature",
            "geometry": {
                "type": "Point",
                "coordinates": [
                    -123.752,
                    48.368
                ]
            },
            "properties": {
                "siteID": "CWIR",
                "name": "Victoria Marine",
                "elev": 17,
                "priority": 9
            }
        },
        {
            "type": "Feature",
            "geometry": {
                "type": "Point",
                "coordinates": [
                    -71.78,
                    48.48
                ]
            },
            "properties": {
                "siteID": "CWIU",
                "name": "St. Gedeon",
                "elev": 103,
                "priority": 9
            }
        },
        {
            "type": "Feature",
            "geometry": {
                "type": "Point",
                "coordinates": [
                    -118.07,
                    52.88
                ]
            },
            "properties": {
                "siteID": "CWJA",
                "name": "Jasper",
                "elev": 1061,
                "priority": 9
            }
        },
        {
            "type": "Feature",
            "geometry": {
                "type": "Point",
                "coordinates": [
                    -128.407,
                    52.27
                ]
            },
            "properties": {
                "siteID": "CWJG",
                "name": "Ivory Island",
                "elev": 14,
                "priority": 9
            }
        },
        {
            "type": "Feature",
            "geometry": {
                "type": "Point",
                "coordinates": [
                    -76.295,
                    44.703
                ]
            },
            "properties": {
                "siteID": "CWJM",
                "name": "Upper Rideau Lake",
                "elev": 126,
                "priority": 9
            }
        },
        {
            "type": "Feature",
            "geometry": {
                "type": "Point",
                "coordinates": [
                    -108.42,
                    61.67
                ]
            },
            "properties": {
                "siteID": "CWJP",
                "name": "Porter Lake",
                "elev": 396,
                "priority": 9
            }
        },
        {
            "type": "Feature",
            "geometry": {
                "type": "Point",
                "coordinates": [
                    -98.3,
                    62.7
                ]
            },
            "properties": {
                "siteID": "CWJY",
                "name": "Yathkyed Lake(M",
                "elev": 148,
                "priority": 9
            }
        },
        {
            "type": "Feature",
            "geometry": {
                "type": "Point",
                "coordinates": [
                    -101.77,
                    63.23
                ]
            },
            "properties": {
                "siteID": "CWJZ",
                "name": "Dubawnt Lake (M",
                "elev": 237,
                "priority": 9
            }
        },
        {
            "type": "Feature",
            "geometry": {
                "type": "Point",
                "coordinates": [
                    -89.72,
                    68.43
                ]
            },
            "properties": {
                "siteID": "CWKE",
                "name": "Pelly Bay",
                "elev": 326,
                "priority": 9
            }
        },
        {
            "type": "Feature",
            "geometry": {
                "type": "Point",
                "coordinates": [
                    -128.66,
                    54.05
                ]
            },
            "properties": {
                "siteID": "CWKI",
                "name": "Kitimat",
                "elev": 13,
                "priority": 9
            }
        },
        {
            "type": "Feature",
            "geometry": {
                "type": "Point",
                "coordinates": [
                    -79.574,
                    43.964
                ]
            },
            "properties": {
                "siteID": "CWKR",
                "name": "King Radar Site",
                "elev": 360,
                "priority": 9
            }
        },
        {
            "type": "Feature",
            "geometry": {
                "type": "Point",
                "coordinates": [
                    -122.718,
                    57.25
                ]
            },
            "properties": {
                "siteID": "CWKS",
                "name": "Sikanni Chief",
                "elev": 933,
                "priority": 9
            }
        },
        {
            "type": "Feature",
            "geometry": {
                "type": "Point",
                "coordinates": [
                    -76.94,
                    81.03
                ]
            },
            "properties": {
                "siteID": "CWKU",
                "name": "Whiskey Automat",
                "elev": 829,
                "priority": 9
            }
        },
        {
            "type": "Feature",
            "geometry": {
                "type": "Point",
                "coordinates": [
                    -121.236,
                    49.276
                ]
            },
            "properties": {
                "siteID": "CWKV",
                "name": "Hope Slide",
                "elev": 683,
                "priority": 9
            }
        },
        {
            "type": "Feature",
            "geometry": {
                "type": "Point",
                "coordinates": [
                    -64.165,
                    59.985
                ]
            },
            "properties": {
                "siteID": "CWKW",
                "name": "Cape Kakkiviak",
                "elev": 551,
                "priority": 2
            }
        },
        {
            "type": "Feature",
            "geometry": {
                "type": "Point",
                "coordinates": [
                    -133.05,
                    54.25
                ]
            },
            "properties": {
                "siteID": "CWLA",
                "name": "Langara",
                "elev": 41,
                "priority": 9
            }
        },
        {
            "type": "Feature",
            "geometry": {
                "type": "Point",
                "coordinates": [
                    -79.466,
                    46.317
                ]
            },
            "properties": {
                "siteID": "CWLQ",
                "name": "N Bay Nipissing",
                "elev": 202,
                "priority": 9
            }
        },
        {
            "type": "Feature",
            "geometry": {
                "type": "Point",
                "coordinates": [
                    -62.317,
                    82.512
                ]
            },
            "properties": {
                "siteID": "CWLT",
                "name": "Alert",
                "elev": 9,
                "priority": 9
            }
        },
        {
            "type": "Feature",
            "geometry": {
                "type": "Point",
                "coordinates": [
                    -71.157,
                    46.833
                ]
            },
            "properties": {
                "siteID": "CWLU",
                "name": "Lauzon",
                "elev": 20,
                "priority": 9
            }
        },
        {
            "type": "Feature",
            "geometry": {
                "type": "Point",
                "coordinates": [
                    -105.27,
                    53.73
                ]
            },
            "properties": {
                "siteID": "CWLZ",
                "name": "Candle Lake",
                "elev": 503,
                "priority": 9
            }
        },
        {
            "type": "Feature",
            "geometry": {
                "type": "Point",
                "coordinates": [
                    -132.12,
                    54.02
                ]
            },
            "properties": {
                "siteID": "CWMA",
                "name": "Masset Arpt",
                "elev": 5,
                "priority": 9
            }
        },
        {
            "type": "Feature",
            "geometry": {
                "type": "Point",
                "coordinates": [
                    -119.32,
                    76.23
                ]
            },
            "properties": {
                "siteID": "CWMD",
                "name": "Mould Bay Camp",
                "elev": 12,
                "priority": 9
            }
        },
        {
            "type": "Feature",
            "geometry": {
                "type": "Point",
                "coordinates": [
                    -55.83,
                    52.3
                ]
            },
            "properties": {
                "siteID": "CWMH",
                "name": "Mary's Harbour",
                "elev": 8,
                "priority": 9
            }
        },
        {
            "type": "Feature",
            "geometry": {
                "type": "Point",
                "coordinates": [
                    -73.93,
                    45.42
                ]
            },
            "properties": {
                "siteID": "CWMN",
                "name": "McGill(RADAR)",
                "elev": 63,
                "priority": 9
            }
        },
        {
            "type": "Feature",
            "geometry": {
                "type": "Point",
                "coordinates": [
                    -109.33,
                    61.05
                ]
            },
            "properties": {
                "siteID": "CWMP",
                "name": "Powder Lake",
                "elev": 386,
                "priority": 9
            }
        },
        {
            "type": "Feature",
            "geometry": {
                "type": "Point",
                "coordinates": [
                    -123.912,
                    49.468
                ]
            },
            "properties": {
                "siteID": "CWMR",
                "name": "Merry Island",
                "elev": 15,
                "priority": 9
            }
        },
        {
            "type": "Feature",
            "geometry": {
                "type": "Point",
                "coordinates": [
                    -130.47,
                    65.95
                ]
            },
            "properties": {
                "siteID": "CWMU",
                "name": "Rampart Riv (AUTO)",
                "elev": 0,
                "priority": 9
            }
        },
        {
            "type": "Feature",
            "geometry": {
                "type": "Point",
                "coordinates": [
                    -124.22,
                    64.75
                ]
            },
            "properties": {
                "siteID": "CWMV",
                "name": "St Charles Creek",
                "elev": 341,
                "priority": 9
            }
        },
        {
            "type": "Feature",
            "geometry": {
                "type": "Point",
                "coordinates": [
                    -75.97,
                    46.38
                ]
            },
            "properties": {
                "siteID": "CWMW",
                "name": "Maniwaki",
                "elev": 170,
                "priority": 9
            }
        },
        {
            "type": "Feature",
            "geometry": {
                "type": "Point",
                "coordinates": [
                    -82.467,
                    41.833
                ]
            },
            "properties": {
                "siteID": "CWNB",
                "name": "S.E. Shoal(MAPS)",
                "elev": 168,
                "priority": 4
            }
        },
        {
            "type": "Feature",
            "geometry": {
                "type": "Point",
                "coordinates": [
                    -135.33,
                    69.62
                ]
            },
            "properties": {
                "siteID": "CWNI",
                "name": "Nipterk Base",
                "elev": 10,
                "priority": 9
            }
        },
        {
            "type": "Feature",
            "geometry": {
                "type": "Point",
                "coordinates": [
                    -130.707,
                    54.569
                ]
            },
            "properties": {
                "siteID": "CWNJ",
                "name": "Green IL",
                "elev": 12,
                "priority": 9
            }
        },
        {
            "type": "Feature",
            "geometry": {
                "type": "Point",
                "coordinates": [
                    -134.19,
                    66.87
                ]
            },
            "properties": {
                "siteID": "CWNO",
                "name": "Satah River Aut",
                "elev": 97,
                "priority": 9
            }
        },
        {
            "type": "Feature",
            "geometry": {
                "type": "Point",
                "coordinates": [
                    -114.417,
                    49.583
                ]
            },
            "properties": {
                "siteID": "CWNT",
                "name": "Turtle Mountain",
                "elev": 2012,
                "priority": 9
            }
        },
        {
            "type": "Feature",
            "geometry": {
                "type": "Point",
                "coordinates": [
                    -121.1,
                    67.06
                ]
            },
            "properties": {
                "siteID": "CWNW",
                "name": "Haldane River",
                "elev": 186,
                "priority": 9
            }
        },
        {
            "type": "Feature",
            "geometry": {
                "type": "Point",
                "coordinates": [
                    -124.837,
                    53.684
                ]
            },
            "properties": {
                "siteID": "CWNX",
                "name": "Nechako River",
                "elev": 718,
                "priority": 9
            }
        },
        {
            "type": "Feature",
            "geometry": {
                "type": "Point",
                "coordinates": [
                    -118.12,
                    65.62
                ]
            },
            "properties": {
                "siteID": "CWOA",
                "name": "Camsell River",
                "elev": 230,
                "priority": 9
            }
        },
        {
            "type": "Feature",
            "geometry": {
                "type": "Point",
                "coordinates": [
                    -74.28,
                    46.05
                ]
            },
            "properties": {
                "siteID": "CWOH",
                "name": "Ste Agathe Des",
                "elev": 395,
                "priority": 9
            }
        },
        {
            "type": "Feature",
            "geometry": {
                "type": "Point",
                "coordinates": [
                    -59.92,
                    43.92
                ]
            },
            "properties": {
                "siteID": "CWOL",
                "name": "Sable Island Ma",
                "elev": 4,
                "priority": 9
            }
        },
        {
            "type": "Feature",
            "geometry": {
                "type": "Point",
                "coordinates": [
                    -139.127,
                    64.044
                ]
            },
            "properties": {
                "siteID": "CWON",
                "name": "Dawson(AUTO)",
                "elev": 338,
                "priority": 9
            }
        },
        {
            "type": "Feature",
            "geometry": {
                "type": "Point",
                "coordinates": [
                    -110.066,
                    54.774
                ]
            },
            "properties": {
                "siteID": "CWOU",
                "name": "Primrose Lake 2",
                "elev": 604,
                "priority": 9
            }
        },
        {
            "type": "Feature",
            "geometry": {
                "type": "Point",
                "coordinates": [
                    -79.87,
                    44.85
                ]
            },
            "properties": {
                "siteID": "CWPB",
                "name": "Beausoleil Isl",
                "elev": 183,
                "priority": 9
            }
        },
        {
            "type": "Feature",
            "geometry": {
                "type": "Point",
                "coordinates": [
                    -78.12,
                    58.45
                ]
            },
            "properties": {
                "siteID": "CWPH",
                "name": "Inukjuak",
                "elev": 25,
                "priority": 9
            }
        },
        {
            "type": "Feature",
            "geometry": {
                "type": "Point",
                "coordinates": [
                    -127.728,
                    50.976
                ]
            },
            "properties": {
                "siteID": "CWPI",
                "name": "Pine Island (AUTO)",
                "elev": 20,
                "priority": 9
            }
        },
        {
            "type": "Feature",
            "geometry": {
                "type": "Point",
                "coordinates": [
                    -64.8,
                    47.07
                ]
            },
            "properties": {
                "siteID": "CWPJ",
                "name": "Pt. Escuminac(M",
                "elev": 5,
                "priority": 9
            }
        },
        {
            "type": "Feature",
            "geometry": {
                "type": "Point",
                "coordinates": [
                    -73.602,
                    45.597
                ]
            },
            "properties": {
                "siteID": "CWPQ",
                "name": "Montreal-Est",
                "elev": 51,
                "priority": 9
            }
        },
        {
            "type": "Feature",
            "geometry": {
                "type": "Point",
                "coordinates": [
                    -111.13,
                    58.77
                ]
            },
            "properties": {
                "siteID": "CWPY",
                "name": "Fort Chipewyan",
                "elev": 232,
                "priority": 9
            }
        },
        {
            "type": "Feature",
            "geometry": {
                "type": "Point",
                "coordinates": [
                    -79.343,
                    43.614
                ]
            },
            "properties": {
                "siteID": "CWQE",
                "name": "Toronto Headlands",
                "elev": 85,
                "priority": 9
            }
        },
        {
            "type": "Feature",
            "geometry": {
                "type": "Point",
                "coordinates": [
                    -71.5,
                    46.9
                ]
            },
            "properties": {
                "siteID": "CWQG",
                "name": "Valcartier",
                "elev": 168,
                "priority": 9
            }
        },
        {
            "type": "Feature",
            "geometry": {
                "type": "Point",
                "coordinates": [
                    -48.5,
                    46.5
                ]
            },
            "properties": {
                "siteID": "CWQJ",
                "name": "Sedco 710",
                "elev": 0,
                "priority": 9
            }
        },
        {
            "type": "Feature",
            "geometry": {
                "type": "Point",
                "coordinates": [
                    -122.533,
                    53.033
                ]
            },
            "properties": {
                "siteID": "CWQZ",
                "name": "Quesnel (AUTO8)",
                "elev": 478,
                "priority": 9
            }
        },
        {
            "type": "Feature",
            "geometry": {
                "type": "Point",
                "coordinates": [
                    -128.97,
                    69.93
                ]
            },
            "properties": {
                "siteID": "CWRP",
                "name": "Nicholson Penin",
                "elev": 89,
                "priority": 9
            }
        },
        {
            "type": "Feature",
            "geometry": {
                "type": "Point",
                "coordinates": [
                    -72.62,
                    46.38
                ]
            },
            "properties": {
                "siteID": "CWRQ",
                "name": "Trois Rivieres",
                "elev": 11,
                "priority": 9
            }
        },
        {
            "type": "Feature",
            "geometry": {
                "type": "Point",
                "coordinates": [
                    -60.23,
                    45.72
                ]
            },
            "properties": {
                "siteID": "CWRW",
                "name": "Fourchu Head(MA",
                "elev": 10,
                "priority": 9
            }
        },
        {
            "type": "Feature",
            "geometry": {
                "type": "Point",
                "coordinates": [
                    -60.002,
                    43.933
                ]
            },
            "properties": {
                "siteID": "CWSA",
                "name": "Sable Island",
                "elev": 4,
                "priority": 2
            }
        },
        {
            "type": "Feature",
            "geometry": {
                "type": "Point",
                "coordinates": [
                    -114.1,
                    53.55
                ]
            },
            "properties": {
                "siteID": "CWSE",
                "name": "Edmonton/Stony",
                "elev": 766,
                "priority": 9
            }
        },
        {
            "type": "Feature",
            "geometry": {
                "type": "Point",
                "coordinates": [
                    -118.5,
                    58.58
                ]
            },
            "properties": {
                "siteID": "CWSH",
                "name": "Sousa Crk(AVT)",
                "elev": 373,
                "priority": 9
            }
        },
        {
            "type": "Feature",
            "geometry": {
                "type": "Point",
                "coordinates": [
                    -80.268,
                    42.851
                ]
            },
            "properties": {
                "siteID": "CWSI",
                "name": "Simcoe (MARS)",
                "elev": 227,
                "priority": 9
            }
        },
        {
            "type": "Feature",
            "geometry": {
                "type": "Point",
                "coordinates": [
                    -81.38,
                    43.372
                ]
            },
            "properties": {
                "siteID": "CWSO",
                "name": "Exeter Radar Site",
                "elev": 305,
                "priority": 9
            }
        },
        {
            "type": "Feature",
            "geometry": {
                "type": "Point",
                "coordinates": [
                    -119.29,
                    52.129
                ]
            },
            "properties": {
                "siteID": "CWSV",
                "name": "Blue River (MAR",
                "elev": 677,
                "priority": 9
            }
        },
        {
            "type": "Feature",
            "geometry": {
                "type": "Point",
                "coordinates": [
                    -114.881,
                    49.834
                ]
            },
            "properties": {
                "siteID": "CWSW",
                "name": "Sparwood/Elk Valley",
                "elev": 1173,
                "priority": 6
            }
        },
        {
            "type": "Feature",
            "geometry": {
                "type": "Point",
                "coordinates": [
                    -63.22,
                    55.33
                ]
            },
            "properties": {
                "siteID": "CWTB",
                "name": "Border (MAPS)",
                "elev": 479,
                "priority": 9
            }
        },
        {
            "type": "Feature",
            "geometry": {
                "type": "Point",
                "coordinates": [
                    -129.68,
                    53.054
                ]
            },
            "properties": {
                "siteID": "CWTC",
                "name": "Ethelda Bay",
                "elev": 25,
                "priority": 9
            }
        },
        {
            "type": "Feature",
            "geometry": {
                "type": "Point",
                "coordinates": [
                    -109.7,
                    59.22
                ]
            },
            "properties": {
                "siteID": "CWTF",
                "name": "Beartooth Islan",
                "elev": 238,
                "priority": 9
            }
        },
        {
            "type": "Feature",
            "geometry": {
                "type": "Point",
                "coordinates": [
                    -124.23,
                    58.65
                ]
            },
            "properties": {
                "siteID": "CWTH",
                "name": "Mile 375 Tetsa",
                "elev": 804,
                "priority": 9
            }
        },
        {
            "type": "Feature",
            "geometry": {
                "type": "Point",
                "coordinates": [
                    -130.88,
                    54.3
                ]
            },
            "properties": {
                "siteID": "CWTI",
                "name": "Triple IL LH",
                "elev": 21,
                "priority": 9
            }
        },
        {
            "type": "Feature",
            "geometry": {
                "type": "Point",
                "coordinates": [
                    -79.47,
                    43.78
                ]
            },
            "properties": {
                "siteID": "CWTO",
                "name": "Toronto AES HQ",
                "elev": 187,
                "priority": 9
            }
        },
        {
            "type": "Feature",
            "geometry": {
                "type": "Point",
                "coordinates": [
                    -72.17,
                    45.27
                ]
            },
            "properties": {
                "siteID": "CWTT",
                "name": "Lac Memphremagoc",
                "elev": 210,
                "priority": 5
            }
        },
        {
            "type": "Feature",
            "geometry": {
                "type": "Point",
                "coordinates": [
                    -133,
                    69.44
                ]
            },
            "properties": {
                "siteID": "CWTW",
                "name": "Tuktoyaktuk",
                "elev": 18,
                "priority": 9
            }
        },
        {
            "type": "Feature",
            "geometry": {
                "type": "Point",
                "coordinates": [
                    -94.763,
                    49.469
                ]
            },
            "properties": {
                "siteID": "CWTX",
                "name": "Royal Island",
                "elev": 323,
                "priority": 9
            }
        },
        {
            "type": "Feature",
            "geometry": {
                "type": "Point",
                "coordinates": [
                    -79.42,
                    43.63
                ]
            },
            "properties": {
                "siteID": "CWTZ",
                "name": "Toronto Island",
                "elev": 77,
                "priority": 9
            }
        },
        {
            "type": "Feature",
            "geometry": {
                "type": "Point",
                "coordinates": [
                    -71.288,
                    46.781
                ]
            },
            "properties": {
                "siteID": "CWUI",
                "name": "Ste Foy",
                "elev": 90,
                "priority": 9
            }
        },
        {
            "type": "Feature",
            "geometry": {
                "type": "Point",
                "coordinates": [
                    -73.68,
                    45.5
                ]
            },
            "properties": {
                "siteID": "CWUL",
                "name": "Quebec Fcst Off",
                "elev": 0,
                "priority": 9
            }
        },
        {
            "type": "Feature",
            "geometry": {
                "type": "Point",
                "coordinates": [
                    -63.27,
                    45.37
                ]
            },
            "properties": {
                "siteID": "CWUR",
                "name": "Truro (MARS)",
                "elev": 40,
                "priority": 9
            }
        },
        {
            "type": "Feature",
            "geometry": {
                "type": "Point",
                "coordinates": [
                    -85.67,
                    68.3
                ]
            },
            "properties": {
                "siteID": "CWUU",
                "name": "Mackar Inlet",
                "elev": 395,
                "priority": 9
            }
        },
        {
            "type": "Feature",
            "geometry": {
                "type": "Point",
                "coordinates": [
                    -66.8,
                    68.47
                ]
            },
            "properties": {
                "siteID": "CWUZ",
                "name": "Cape Hooper",
                "elev": 401,
                "priority": 9
            }
        },
        {
            "type": "Feature",
            "geometry": {
                "type": "Point",
                "coordinates": [
                    -53.11,
                    48.67
                ]
            },
            "properties": {
                "siteID": "CWVA",
                "name": "Bonavista",
                "elev": 26,
                "priority": 9
            }
        },
        {
            "type": "Feature",
            "geometry": {
                "type": "Point",
                "coordinates": [
                    -130.638,
                    53.493
                ]
            },
            "properties": {
                "siteID": "CWVB",
                "name": "Bonilla Island",
                "elev": 8,
                "priority": 9
            }
        },
        {
            "type": "Feature",
            "geometry": {
                "type": "Point",
                "coordinates": [
                    -74.09,
                    45.23
                ]
            },
            "properties": {
                "siteID": "CWVE",
                "name": "Valleyfield",
                "elev": 46,
                "priority": 9
            }
        },
        {
            "type": "Feature",
            "geometry": {
                "type": "Point",
                "coordinates": [
                    -119.283,
                    50.233
                ]
            },
            "properties": {
                "siteID": "CWVK",
                "name": "Vernon (AUTO8)",
                "elev": 556,
                "priority": 9
            }
        },
        {
            "type": "Feature",
            "geometry": {
                "type": "Point",
                "coordinates": [
                    -63.78,
                    67.53
                ]
            },
            "properties": {
                "siteID": "CWVM",
                "name": "Broughton Islan",
                "elev": 573,
                "priority": 9
            }
        },
        {
            "type": "Feature",
            "geometry": {
                "type": "Point",
                "coordinates": [
                    -123.459,
                    48.533
                ]
            },
            "properties": {
                "siteID": "CWVV",
                "name": "Vic Hartland(AUTO)",
                "elev": 148,
                "priority": 9
            }
        },
        {
            "type": "Feature",
            "geometry": {
                "type": "Point",
                "coordinates": [
                    -52.938,
                    48.171
                ]
            },
            "properties": {
                "siteID": "CWVW",
                "name": "Grates Cove(AUTO)",
                "elev": 17,
                "priority": 9
            }
        },
        {
            "type": "Feature",
            "geometry": {
                "type": "Point",
                "coordinates": [
                    -64.16,
                    63.34
                ]
            },
            "properties": {
                "siteID": "CWVX",
                "name": "Brevoort Island",
                "elev": 376,
                "priority": 9
            }
        },
        {
            "type": "Feature",
            "geometry": {
                "type": "Point",
                "coordinates": [
                    -71.932,
                    46.449
                ]
            },
            "properties": {
                "siteID": "CWVY",
                "name": "Villeroy Radar",
                "elev": 106,
                "priority": 9
            }
        },
        {
            "type": "Feature",
            "geometry": {
                "type": "Point",
                "coordinates": [
                    -73.494,
                    45.584
                ]
            },
            "properties": {
                "siteID": "CWVZ",
                "name": "Ile Charron",
                "elev": 12,
                "priority": 9
            }
        },
        {
            "type": "Feature",
            "geometry": {
                "type": "Point",
                "coordinates": [
                    -65.08,
                    82.5
                ]
            },
            "properties": {
                "siteID": "CWWM",
                "name": "Grant Automatic",
                "elev": 1242,
                "priority": 9
            }
        },
        {
            "type": "Feature",
            "geometry": {
                "type": "Point",
                "coordinates": [
                    -125.767,
                    58.931
                ]
            },
            "properties": {
                "siteID": "CWWQ",
                "name": "Muncho Lake",
                "elev": 839,
                "priority": 9
            }
        },
        {
            "type": "Feature",
            "geometry": {
                "type": "Point",
                "coordinates": [
                    -52.98,
                    47.516
                ]
            },
            "properties": {
                "siteID": "CWWU",
                "name": "Long Pond",
                "elev": 2,
                "priority": 6
            }
        },
        {
            "type": "Feature",
            "geometry": {
                "type": "Point",
                "coordinates": [
                    -64.84,
                    60.42
                ]
            },
            "properties": {
                "siteID": "CWWV",
                "name": "Killinek (MAPS)",
                "elev": 31,
                "priority": 9
            }
        },
        {
            "type": "Feature",
            "geometry": {
                "type": "Point",
                "coordinates": [
                    -128.129,
                    50.64
                ]
            },
            "properties": {
                "siteID": "CWXH",
                "name": "Holberg CCR",
                "elev": 570,
                "priority": 9
            }
        },
        {
            "type": "Feature",
            "geometry": {
                "type": "Point",
                "coordinates": [
                    -53.9,
                    47.82
                ]
            },
            "properties": {
                "siteID": "CWXJ",
                "name": "Bull Arm (AUTO)",
                "elev": 119,
                "priority": 9
            }
        },
        {
            "type": "Feature",
            "geometry": {
                "type": "Point",
                "coordinates": [
                    -120.8,
                    69.58
                ]
            },
            "properties": {
                "siteID": "CWXK",
                "name": "Clinton Point",
                "elev": 101,
                "priority": 9
            }
        },
        {
            "type": "Feature",
            "geometry": {
                "type": "Point",
                "coordinates": [
                    -125.875,
                    50.401
                ]
            },
            "properties": {
                "siteID": "CWXM",
                "name": "Helmcken Isl(MAPS)",
                "elev": 29,
                "priority": 9
            }
        },
        {
            "type": "Feature",
            "geometry": {
                "type": "Point",
                "coordinates": [
                    -60.55,
                    43.88
                ]
            },
            "properties": {
                "siteID": "CWXO",
                "name": "Rowan Gorilla Intl",
                "elev": 44,
                "priority": 9
            }
        },
        {
            "type": "Feature",
            "geometry": {
                "type": "Point",
                "coordinates": [
                    -96.5,
                    66.08
                ]
            },
            "properties": {
                "siteID": "CWXV",
                "name": "Back River (MAP",
                "elev": 28,
                "priority": 9
            }
        },
        {
            "type": "Feature",
            "geometry": {
                "type": "Point",
                "coordinates": [
                    -56.87,
                    52.65
                ]
            },
            "properties": {
                "siteID": "CWXW",
                "name": "Alexis River (MAPS)",
                "elev": 37,
                "priority": 9
            }
        },
        {
            "type": "Feature",
            "geometry": {
                "type": "Point",
                "coordinates": [
                    -79.44,
                    46.32
                ]
            },
            "properties": {
                "siteID": "CWYB",
                "name": "N. Bay Weather",
                "elev": 0,
                "priority": 9
            }
        },
        {
            "type": "Feature",
            "geometry": {
                "type": "Point",
                "coordinates": [
                    -113.5,
                    53.5
                ]
            },
            "properties": {
                "siteID": "CWYC",
                "name": "Alberta Wx Cent",
                "elev": 30,
                "priority": 9
            }
        },
        {
            "type": "Feature",
            "geometry": {
                "type": "Point",
                "coordinates": [
                    -63.13,
                    46.23
                ]
            },
            "properties": {
                "siteID": "CWYG",
                "name": "Charlottetown",
                "elev": 50,
                "priority": 9
            }
        },
        {
            "type": "Feature",
            "geometry": {
                "type": "Point",
                "coordinates": [
                    -53.581,
                    49.112
                ]
            },
            "properties": {
                "siteID": "CWYI",
                "name": "Pools Island",
                "elev": 19,
                "priority": 9
            }
        },
        {
            "type": "Feature",
            "geometry": {
                "type": "Point",
                "coordinates": [
                    -63.578,
                    64.958
                ]
            },
            "properties": {
                "siteID": "CWYM",
                "name": "Cape Mercy",
                "elev": 582,
                "priority": 3
            }
        },
        {
            "type": "Feature",
            "geometry": {
                "type": "Point",
                "coordinates": [
                    -104.2,
                    51.77
                ]
            },
            "properties": {
                "siteID": "CWYO",
                "name": "Wynyard",
                "elev": 561,
                "priority": 9
            }
        },
        {
            "type": "Feature",
            "geometry": {
                "type": "Point",
                "coordinates": [
                    -59.155,
                    47.574
                ]
            },
            "properties": {
                "siteID": "CWZB",
                "name": "Port-Aux-Basques",
                "elev": 46,
                "priority": 9
            }
        },
        {
            "type": "Feature",
            "geometry": {
                "type": "Point",
                "coordinates": [
                    -131.239,
                    52.446
                ]
            },
            "properties": {
                "siteID": "CWZD",
                "name": "Scudder Pt (MAPS)",
                "elev": 6,
                "priority": 9
            }
        },
        {
            "type": "Feature",
            "geometry": {
                "type": "Point",
                "coordinates": [
                    -128.524,
                    52.643
                ]
            },
            "properties": {
                "siteID": "CWZM",
                "name": "Boat Bluff LH",
                "elev": 11,
                "priority": 9
            }
        },
        {
            "type": "Feature",
            "geometry": {
                "type": "Point",
                "coordinates": [
                    -123.265,
                    48.568
                ]
            },
            "properties": {
                "siteID": "CWZO",
                "name": "Kelp Reefs(NAV)",
                "elev": 5,
                "priority": 6
            }
        },
        {
            "type": "Feature",
            "geometry": {
                "type": "Point",
                "coordinates": [
                    -61.049,
                    46.547
                ]
            },
            "properties": {
                "siteID": "CWZQ",
                "name": "Grand Etang(AUTO)",
                "elev": 13,
                "priority": 4
            }
        },
        {
            "type": "Feature",
            "geometry": {
                "type": "Point",
                "coordinates": [
                    -63.73,
                    46.23
                ]
            },
            "properties": {
                "siteID": "CXBP",
                "name": "Confederation Bay",
                "elev": 54,
                "priority": 5
            }
        },
        {
            "type": "Feature",
            "geometry": {
                "type": "Point",
                "coordinates": [
                    -81.53,
                    45.23
                ]
            },
            "properties": {
                "siteID": "CXCY",
                "name": "Cyprus Lake",
                "elev": 190,
                "priority": 9
            }
        },
        {
            "type": "Feature",
            "geometry": {
                "type": "Point",
                "coordinates": [
                    -64.296,
                    44.36
                ]
            },
            "properties": {
                "siteID": "CXLB",
                "name": "Lunenburg",
                "elev": 4,
                "priority": 5
            }
        },
        {
            "type": "Feature",
            "geometry": {
                "type": "Point",
                "coordinates": [
                    -62.484,
                    44.984
                ]
            },
            "properties": {
                "siteID": "CXMY",
                "name": "Malay Falls",
                "elev": 37,
                "priority": 4
            }
        },
        {
            "type": "Feature",
            "geometry": {
                "type": "Point",
                "coordinates": [
                    -89.217,
                    48.433
                ]
            },
            "properties": {
                "siteID": "CXQT",
                "name": "Thunder Bay/N Ontari",
                "elev": 184,
                "priority": 7
            }
        },
        {
            "type": "Feature",
            "geometry": {
                "type": "Point",
                "coordinates": [
                    -52.784,
                    47.516
                ]
            },
            "properties": {
                "siteID": "CXSW",
                "name": "St Johns West(CDA)",
                "elev": 117,
                "priority": 6
            }
        },
        {
            "type": "Feature",
            "geometry": {
                "type": "Point",
                "coordinates": [
                    -79.4,
                    43.667
                ]
            },
            "properties": {
                "siteID": "CXTO",
                "name": "Toronto City",
                "elev": 115,
                "priority": 6
            }
        },
        {
            "type": "Feature",
            "geometry": {
                "type": "Point",
                "coordinates": [
                    -85.029,
                    73.003
                ]
            },
            "properties": {
                "siteID": "CYAB",
                "name": "Arctic Bay Arpt",
                "elev": 36,
                "priority": 7
            }
        },
        {
            "type": "Feature",
            "geometry": {
                "type": "Point",
                "coordinates": [
                    -76.19,
                    53.572
                ]
            },
            "properties": {
                "siteID": "CYAD",
                "name": "La Grande-3 Arpt",
                "elev": 228,
                "priority": 3
            }
        },
        {
            "type": "Feature",
            "geometry": {
                "type": "Point",
                "coordinates": [
                    -73.676,
                    53.757
                ]
            },
            "properties": {
                "siteID": "CYAH",
                "name": "La Grande IV Arpt",
                "elev": 298,
                "priority": 2
            }
        },
        {
            "type": "Feature",
            "geometry": {
                "type": "Point",
                "coordinates": [
                    -140.16,
                    69.58
                ]
            },
            "properties": {
                "siteID": "CYAJ",
                "name": "Komakuk Beach Arpt",
                "elev": 7,
                "priority": 9
            }
        },
        {
            "type": "Feature",
            "geometry": {
                "type": "Point",
                "coordinates": [
                    -70.004,
                    60.026
                ]
            },
            "properties": {
                "siteID": "CYAS",
                "name": "Kangirsuk Arpt",
                "elev": 99,
                "priority": 3
            }
        },
        {
            "type": "Feature",
            "geometry": {
                "type": "Point",
                "coordinates": [
                    -82.432,
                    52.927
                ]
            },
            "properties": {
                "siteID": "CYAT",
                "name": "Attawapisket Arpt",
                "elev": 4,
                "priority": 3
            }
        },
        {
            "type": "Feature",
            "geometry": {
                "type": "Point",
                "coordinates": [
                    -89.792,
                    68.536
                ]
            },
            "properties": {
                "siteID": "CYBB",
                "name": "Pelly Bay/Kugaaruk Arpt",
                "elev": 13,
                "priority": 2
            }
        },
        {
            "type": "Feature",
            "geometry": {
                "type": "Point",
                "coordinates": [
                    -125.269,
                    49.951
                ]
            },
            "properties": {
                "siteID": "CYBL",
                "name": "Campbell River Arpt",
                "elev": 94,
                "priority": 5
            }
        },
        {
            "type": "Feature",
            "geometry": {
                "type": "Point",
                "coordinates": [
                    -97.022,
                    52.36
                ]
            },
            "properties": {
                "siteID": "CYBV",
                "name": "Berens River Arpt",
                "elev": 219,
                "priority": 3
            }
        },
        {
            "type": "Feature",
            "geometry": {
                "type": "Point",
                "coordinates": [
                    -57.042,
                    53.683
                ]
            },
            "properties": {
                "siteID": "CYCA",
                "name": "Cartwright Arpt",
                "elev": 12,
                "priority": 0
            }
        },
        {
            "type": "Feature",
            "geometry": {
                "type": "Point",
                "coordinates": [
                    -65.466,
                    47.011
                ]
            },
            "properties": {
                "siteID": "CYCH",
                "name": "Chatham",
                "elev": 31,
                "priority": 9
            }
        },
        {
            "type": "Feature",
            "geometry": {
                "type": "Point",
                "coordinates": [
                    -82.085,
                    42.307
                ]
            },
            "properties": {
                "siteID": "CYCK",
                "name": "Chatham/Kent Arpt",
                "elev": 196,
                "priority": 6
            }
        },
        {
            "type": "Feature",
            "geometry": {
                "type": "Point",
                "coordinates": [
                    -66.33,
                    47.98
                ]
            },
            "properties": {
                "siteID": "CYCL",
                "name": "Charlo Arpt",
                "elev": 40,
                "priority": 9
            }
        },
        {
            "type": "Feature",
            "geometry": {
                "type": "Point",
                "coordinates": [
                    -121.62,
                    55.689
                ]
            },
            "properties": {
                "siteID": "CYCQ",
                "name": "Chetwynd Arpt",
                "elev": 614,
                "priority": 4
            }
        },
        {
            "type": "Feature",
            "geometry": {
                "type": "Point",
                "coordinates": [
                    -90.727,
                    63.345
                ]
            },
            "properties": {
                "siteID": "CYCS",
                "name": "Chesterfield Inlet Arpt",
                "elev": 7,
                "priority": 4
            }
        },
        {
            "type": "Feature",
            "geometry": {
                "type": "Point",
                "coordinates": [
                    -111.45,
                    52.07
                ]
            },
            "properties": {
                "siteID": "CYCT",
                "name": "Coronation Arpt",
                "elev": 791,
                "priority": 9
            }
        },
        {
            "type": "Feature",
            "geometry": {
                "type": "Point",
                "coordinates": [
                    -120.514,
                    49.468
                ]
            },
            "properties": {
                "siteID": "CYDC",
                "name": "Princeton Arpt",
                "elev": 703,
                "priority": 4
            }
        },
        {
            "type": "Feature",
            "geometry": {
                "type": "Point",
                "coordinates": [
                    -132.427,
                    61.972
                ]
            },
            "properties": {
                "siteID": "CYDM",
                "name": "Ross River Arpt",
                "elev": 670,
                "priority": 9
            }
        },
        {
            "type": "Feature",
            "geometry": {
                "type": "Point",
                "coordinates": [
                    -120.188,
                    55.741
                ]
            },
            "properties": {
                "siteID": "CYDQ",
                "name": "Dawson Creek Arpt",
                "elev": 658,
                "priority": 4
            }
        },
        {
            "type": "Feature",
            "geometry": {
                "type": "Point",
                "coordinates": [
                    -82.558,
                    46.351
                ]
            },
            "properties": {
                "siteID": "CYEL",
                "name": "Elliot Lake Arpt",
                "elev": 327,
                "priority": 9
            }
        },
        {
            "type": "Feature",
            "geometry": {
                "type": "Point",
                "coordinates": [
                    -85.82,
                    80
                ]
            },
            "properties": {
                "siteID": "CYEU",
                "name": "Eureka Man",
                "elev": 78,
                "priority": 9
            }
        },
        {
            "type": "Feature",
            "geometry": {
                "type": "Point",
                "coordinates": [
                    -101.68,
                    54.678
                ]
            },
            "properties": {
                "siteID": "CYFO",
                "name": "Flin Flon Arpto",
                "elev": 303,
                "priority": 4
            }
        },
        {
            "type": "Feature",
            "geometry": {
                "type": "Point",
                "coordinates": [
                    -113.688,
                    61.178
                ]
            },
            "properties": {
                "siteID": "CYFR",
                "name": "Fort Resolution Arpt",
                "elev": 159,
                "priority": 3
            }
        },
        {
            "type": "Feature",
            "geometry": {
                "type": "Point",
                "coordinates": [
                    -59.189,
                    55.082
                ]
            },
            "properties": {
                "siteID": "CYFT",
                "name": "Makkovik Arpt",
                "elev": 65,
                "priority": 4
            }
        },
        {
            "type": "Feature",
            "geometry": {
                "type": "Point",
                "coordinates": [
                    -116.984,
                    51.3
                ]
            },
            "properties": {
                "siteID": "CYGE",
                "name": "Golden Arpt",
                "elev": 786,
                "priority": 4
            }
        },
        {
            "type": "Feature",
            "geometry": {
                "type": "Point",
                "coordinates": [
                    -128.644,
                    66.242
                ]
            },
            "properties": {
                "siteID": "CYGH",
                "name": "Fort Good Hope Arpt",
                "elev": 72,
                "priority": 3
            }
        },
        {
            "type": "Feature",
            "geometry": {
                "type": "Point",
                "coordinates": [
                    -97.05,
                    50.63
                ]
            },
            "properties": {
                "siteID": "CYGM",
                "name": "Gimli",
                "elev": 230,
                "priority": 9
            }
        },
        {
            "type": "Feature",
            "geometry": {
                "type": "Point",
                "coordinates": [
                    -81.82,
                    69.37
                ]
            },
            "properties": {
                "siteID": "CYGT",
                "name": "Igloolik Arpt",
                "elev": 49,
                "priority": 4
            }
        },
        {
            "type": "Feature",
            "geometry": {
                "type": "Point",
                "coordinates": [
                    -77.76,
                    55.283
                ]
            },
            "properties": {
                "siteID": "CYGW",
                "name": "Kuujjuarapik Arpt",
                "elev": 13,
                "priority": 0
            }
        },
        {
            "type": "Feature",
            "geometry": {
                "type": "Point",
                "coordinates": [
                    -69.624,
                    61.048
                ]
            },
            "properties": {
                "siteID": "CYHA",
                "name": "Quaqtaq Arpt",
                "elev": 31,
                "priority": 3
            }
        },
        {
            "type": "Feature",
            "geometry": {
                "type": "Point",
                "coordinates": [
                    -102.32,
                    52.82
                ]
            },
            "properties": {
                "siteID": "CYHB",
                "name": "Hudson Bay",
                "elev": 358,
                "priority": 9
            }
        },
        {
            "type": "Feature",
            "geometry": {
                "type": "Point",
                "coordinates": [
                    -121.493,
                    49.37
                ]
            },
            "properties": {
                "siteID": "CYHE",
                "name": "Hope Rgnl Airpark",
                "elev": 43,
                "priority": 3
            }
        },
        {
            "type": "Feature",
            "geometry": {
                "type": "Point",
                "coordinates": [
                    -76.138,
                    51.691
                ]
            },
            "properties": {
                "siteID": "CYHH",
                "name": "Nemiscau Arpt",
                "elev": 245,
                "priority": 3
            }
        },
        {
            "type": "Feature",
            "geometry": {
                "type": "Point",
                "coordinates": [
                    -117.8,
                    70.761
                ]
            },
            "properties": {
                "siteID": "CYHI",
                "name": "Ulukhaktok/Holman Arpt",
                "elev": 33,
                "priority": 2
            }
        },
        {
            "type": "Feature",
            "geometry": {
                "type": "Point",
                "coordinates": [
                    -65.787,
                    44.548
                ]
            },
            "properties": {
                "siteID": "CYID",
                "name": "Digby Arpt Aprt",
                "elev": 144,
                "priority": 9
            }
        },
        {
            "type": "Feature",
            "geometry": {
                "type": "Point",
                "coordinates": [
                    -77.925,
                    62.417
                ]
            },
            "properties": {
                "siteID": "CYIK",
                "name": "Ivujivik Arpt",
                "elev": 44,
                "priority": 3
            }
        },
        {
            "type": "Feature",
            "geometry": {
                "type": "Point",
                "coordinates": [
                    -121.681,
                    51.265
                ]
            },
            "properties": {
                "siteID": "CYIN",
                "name": "Bleibler Ranch Arpt",
                "elev": 1127,
                "priority": 6
            }
        },
        {
            "type": "Feature",
            "geometry": {
                "type": "Point",
                "coordinates": [
                    -123.47,
                    60.236
                ]
            },
            "properties": {
                "siteID": "CYJF",
                "name": "Fort Liard Arpt",
                "elev": 215,
                "priority": 3
            }
        },
        {
            "type": "Feature",
            "geometry": {
                "type": "Point",
                "coordinates": [
                    -66,
                    58.72
                ]
            },
            "properties": {
                "siteID": "CYKB",
                "name": "Kangiqsualujjua",
                "elev": 58,
                "priority": 9
            }
        },
        {
            "type": "Feature",
            "geometry": {
                "type": "Point",
                "coordinates": [
                    -135.013,
                    68.227
                ]
            },
            "properties": {
                "siteID": "CYKD",
                "name": "Aklavik Arpt",
                "elev": 7,
                "priority": 4
            }
        },
        {
            "type": "Feature",
            "geometry": {
                "type": "Point",
                "coordinates": [
                    -71.932,
                    61.591
                ]
            },
            "properties": {
                "siteID": "CYKG",
                "name": "Kangiqsujuaq Arpt",
                "elev": 134,
                "priority": 2
            }
        },
        {
            "type": "Feature",
            "geometry": {
                "type": "Point",
                "coordinates": [
                    -78.154,
                    60.818
                ]
            },
            "properties": {
                "siteID": "CYKO",
                "name": "Akulivik Arpt",
                "elev": 23,
                "priority": 3
            }
        },
        {
            "type": "Feature",
            "geometry": {
                "type": "Point",
                "coordinates": [
                    -85.901,
                    51.659
                ]
            },
            "properties": {
                "siteID": "CYKP",
                "name": "Ogoki Post",
                "elev": 181,
                "priority": 3
            }
        },
        {
            "type": "Feature",
            "geometry": {
                "type": "Point",
                "coordinates": [
                    -78.752,
                    51.476
                ]
            },
            "properties": {
                "siteID": "CYKQ",
                "name": "Waskaganish Arpt",
                "elev": 28,
                "priority": 4
            }
        },
        {
            "type": "Feature",
            "geometry": {
                "type": "Point",
                "coordinates": [
                    -79.368,
                    43.866
                ]
            },
            "properties": {
                "siteID": "CYKZ",
                "name": "Toronto/Buttonville Muni",
                "elev": 198,
                "priority": 5
            }
        },
        {
            "type": "Feature",
            "geometry": {
                "type": "Point",
                "coordinates": [
                    -69.598,
                    59.302
                ]
            },
            "properties": {
                "siteID": "CYLA",
                "name": "Apaluk Arpt",
                "elev": 35,
                "priority": 4
            }
        },
        {
            "type": "Feature",
            "geometry": {
                "type": "Point",
                "coordinates": [
                    -69.88,
                    62.85
                ]
            },
            "properties": {
                "siteID": "CYLC",
                "name": "Kimmirut Arpt",
                "elev": 52,
                "priority": 3
            }
        },
        {
            "type": "Feature",
            "geometry": {
                "type": "Point",
                "coordinates": [
                    -87.936,
                    52.196
                ]
            },
            "properties": {
                "siteID": "CYLH",
                "name": "Lansdowne House Arpt",
                "elev": 245,
                "priority": 3
            }
        },
        {
            "type": "Feature",
            "geometry": {
                "type": "Point",
                "coordinates": [
                    -110.682,
                    62.419
                ]
            },