{
    "type": "FeatureCollection",
    "features": [
        {
            "type": "Feature",
            "geometry": {
                "type": "Point",
                "coordinates": [
                    -52.784,
                    68.721
                ]
            },
            "properties": {
                "siteID": "BGAA",
                "name": "Aasiaat Arpt",
                "elev": 27,
                "priority": 4
            }
        },
        {
            "type": "Feature",
            "geometry": {
                "type": "Point",
                "coordinates": [
                    -51.677,
                    64.191
                ]
            },
            "properties": {
                "siteID": "BGGH",
                "name": "Godthab/Nuuk Arpt",
                "elev": 76,
                "priority": 1
            }
        },
        {
            "type": "Feature",
            "geometry": {
                "type": "Point",
                "coordinates": [
                    -51.064,
                    69.24
                ]
            },
            "properties": {
                "siteID": "BGJN",
                "name": "Ilulissat Arpt",
                "elev": 22,
                "priority": 2
            }
        },
        {
            "type": "Feature",
            "geometry": {
                "type": "Point",
                "coordinates": [
                    -53.723,
                    66.951
                ]
            },
            "properties": {
                "siteID": "BGSS",
                "name": "Sisimiut Arpt",
                "elev": 34,
                "priority": 3
            }
        },
        {
            "type": "Feature",
            "geometry": {
                "type": "Point",
                "coordinates": [
                    -52.695,
                    70.733
                ]
            },
            "properties": {
                "siteID": "BGUQ",
                "name": "Uummanaq Arpt",
                "elev": 112,
                "priority": 3
            }
        },
        {
            "type": "Feature",
            "geometry": {
                "type": "Point",
                "coordinates": [
                    -122.955,
                    50.129
                ]
            },
            "properties": {
                "siteID": "CWAE",
                "name": "Whistler",
                "elev": 658,
                "priority": 4
            }
        },
        {
            "type": "Feature",
            "geometry": {
                "type": "Point",
                "coordinates": [
                    -99.9,
                    51.75
                ]
            },
            "properties": {
                "siteID": "CWBL",
                "name": "Bachelors Islan",
                "elev": 256,
                "priority": 9
            }
        },
        {
            "type": "Feature",
            "geometry": {
                "type": "Point",
                "coordinates": [
                    -121.505,
                    51.145
                ]
            },
            "properties": {
                "siteID": "CWCL",
                "name": "Clinton (MARS)",
                "elev": 1059,
                "priority": 2
            }
        },
        {
            "type": "Feature",
            "geometry": {
                "type": "Point",
                "coordinates": [
                    -57.581,
                    50.236
                ]
            },
            "properties": {
                "siteID": "CWDH",
                "name": "Daniel's Harbou",
                "elev": 22,
                "priority": 9
            }
        },
        {
            "type": "Feature",
            "geometry": {
                "type": "Point",
                "coordinates": [
                    -94.704,
                    56.359
                ]
            },
            "properties": {
                "siteID": "CWGX",
                "name": "Gillam",
                "elev": 145,
                "priority": 6
            }
        },
        {
            "type": "Feature",
            "geometry": {
                "type": "Point",
                "coordinates": [
                    -82.902,
                    76.423
                ]
            },
            "properties": {
                "siteID": "CWGZ",
                "name": "Grise Fiord Arpt",
                "elev": 24,
                "priority": 2
            }
        },
        {
            "type": "Feature",
            "geometry": {
                "type": "Point",
                "coordinates": [
                    -122.718,
                    57.25
                ]
            },
            "properties": {
                "siteID": "CWKS",
                "name": "Sikanni Chief",
                "elev": 933,
                "priority": 9
            }
        },
        {
            "type": "Feature",
            "geometry": {
                "type": "Point",
                "coordinates": [
                    -121.236,
                    49.276
                ]
            },
            "properties": {
                "siteID": "CWKV",
                "name": "Hope Slide",
                "elev": 683,
                "priority": 9
            }
        },
        {
            "type": "Feature",
            "geometry": {
                "type": "Point",
                "coordinates": [
                    -55.83,
                    52.3
                ]
            },
            "properties": {
                "siteID": "CWMH",
                "name": "Mary's Harbour",
                "elev": 8,
                "priority": 9
            }
        },
        {
            "type": "Feature",
            "geometry": {
                "type": "Point",
                "coordinates": [
                    -75.97,
                    46.38
                ]
            },
            "properties": {
                "siteID": "CWMW",
                "name": "Maniwaki",
                "elev": 170,
                "priority": 9
            }
        },
        {
            "type": "Feature",
            "geometry": {
                "type": "Point",
                "coordinates": [
                    -82.467,
                    41.833
                ]
            },
            "properties": {
                "siteID": "CWNB",
                "name": "S.E. Shoal(MAPS)",
                "elev": 168,
                "priority": 4
            }
        },
        {
            "type": "Feature",
            "geometry": {
                "type": "Point",
                "coordinates": [
                    -139.127,
                    64.044
                ]
            },
            "properties": {
                "siteID": "CWON",
                "name": "Dawson(AUTO)",
                "elev": 338,
                "priority": 9
            }
        },
        {
            "type": "Feature",
            "geometry": {
                "type": "Point",
                "coordinates": [
                    -78.12,
                    58.45
                ]
            },
            "properties": {
                "siteID": "CWPH",
                "name": "Inukjuak",
                "elev": 25,
                "priority": 9
            }
        },
        {
            "type": "Feature",
            "geometry": {
                "type": "Point",
                "coordinates": [
                    -60.23,
                    45.72
                ]
            },
            "properties": {
                "siteID": "CWRW",
                "name": "Fourchu Head(MA",
                "elev": 10,
                "priority": 9
            }
        },
        {
            "type": "Feature",
            "geometry": {
                "type": "Point",
                "coordinates": [
                    -60.002,
                    43.933
                ]
            },
            "properties": {
                "siteID": "CWSA",
                "name": "Sable Island",
                "elev": 4,
                "priority": 2
            }
        },
        {
            "type": "Feature",
            "geometry": {
                "type": "Point",
                "coordinates": [
                    -114.1,
                    53.55
                ]
            },
            "properties": {
                "siteID": "CWSE",
                "name": "Edmonton/Stony",
                "elev": 766,
                "priority": 9
            }
        },
        {
            "type": "Feature",
            "geometry": {
                "type": "Point",
                "coordinates": [
                    -119.29,
                    52.129
                ]
            },
            "properties": {
                "siteID": "CWSV",
                "name": "Blue River (MAR",
                "elev": 677,
                "priority": 9
            }
        },
        {
            "type": "Feature",
            "geometry": {
                "type": "Point",
                "coordinates": [
                    -63.22,
                    55.33
                ]
            },
            "properties": {
                "siteID": "CWTB",
                "name": "Border (MAPS)",
                "elev": 479,
                "priority": 9
            }
        },
        {
            "type": "Feature",
            "geometry": {
                "type": "Point",
                "coordinates": [
                    -124.23,
                    58.65
                ]
            },
            "properties": {
                "siteID": "CWTH",
                "name": "Mile 375 Tetsa",
                "elev": 804,
                "priority": 9
            }
        },
        {
            "type": "Feature",
            "geometry": {
                "type": "Point",
                "coordinates": [
                    -94.763,
                    49.469
                ]
            },
            "properties": {
                "siteID": "CWTX",
                "name": "Royal Island",
                "elev": 323,
                "priority": 9
            }
        },
        {
            "type": "Feature",
            "geometry": {
                "type": "Point",
                "coordinates": [
                    -123.459,
                    48.533
                ]
            },
            "properties": {
                "siteID": "CWVV",
                "name": "Vic Hartland(AUTO)",
                "elev": 148,
                "priority": 9
            }
        },
        {
            "type": "Feature",
            "geometry": {
                "type": "Point",
                "coordinates": [
                    -125.767,
                    58.931
                ]
            },
            "properties": {
                "siteID": "CWWQ",
                "name": "Muncho Lake",
                "elev": 839,
                "priority": 9
            }
        },
        {
            "type": "Feature",
            "geometry": {
                "type": "Point",
                "coordinates": [
                    -64.84,
                    60.42
                ]
            },
            "properties": {
                "siteID": "CWWV",
                "name": "Killinek (MAPS)",
                "elev": 31,
                "priority": 9
            }
        },
        {
            "type": "Feature",
            "geometry": {
                "type": "Point",
                "coordinates": [
                    -63.578,
                    64.958
                ]
            },
            "properties": {
                "siteID": "CWYM",
                "name": "Cape Mercy",
                "elev": 582,
                "priority": 3
            }
        },
        {
            "type": "Feature",
            "geometry": {
                "type": "Point",
                "coordinates": [
                    -59.155,
                    47.574
                ]
            },
            "properties": {
                "siteID": "CWZB",
                "name": "Port-Aux-Basques",
                "elev": 46,
                "priority": 9
            }
        },
        {
            "type": "Feature",
            "geometry": {
                "type": "Point",
                "coordinates": [
                    -123.265,
                    48.568
                ]
            },
            "properties": {
                "siteID": "CWZO",
                "name": "Kelp Reefs(NAV)",
                "elev": 5,
                "priority": 6
            }
        },
        {
            "type": "Feature",
            "geometry": {
                "type": "Point",
                "coordinates": [
                    -79.4,
                    43.667
                ]
            },
            "properties": {
                "siteID": "CXTO",
                "name": "Toronto City",
                "elev": 115,
                "priority": 6
            }
        },
        {
            "type": "Feature",
            "geometry": {
                "type": "Point",
                "coordinates": [
                    -85.029,
                    73.003
                ]
            },
            "properties": {
                "siteID": "CYAB",
                "name": "Arctic Bay Arpt",
                "elev": 36,
                "priority": 7
            }
        },
        {
            "type": "Feature",
            "geometry": {
                "type": "Point",
                "coordinates": [
                    -76.19,
                    53.572
                ]
            },
            "properties": {
                "siteID": "CYAD",
                "name": "La Grande-3 Arpt",
                "elev": 228,
                "priority": 3
            }
        },
        {
            "type": "Feature",
            "geometry": {
                "type": "Point",
                "coordinates": [
                    -73.676,
                    53.757
                ]
            },
            "properties": {
                "siteID": "CYAH",
                "name": "La Grande IV Arpt",
                "elev": 298,
                "priority": 2
            }
        },
        {
            "type": "Feature",
            "geometry": {
                "type": "Point",
                "coordinates": [
                    -70.004,
                    60.026
                ]
            },
            "properties": {
                "siteID": "CYAS",
                "name": "Kangirsuk Arpt",
                "elev": 99,
                "priority": 3
            }
        },
        {
            "type": "Feature",
            "geometry": {
                "type": "Point",
                "coordinates": [
                    -89.792,
                    68.536
                ]
            },
            "properties": {
                "siteID": "CYBB",
                "name": "Pelly Bay/Kugaaruk Arpt",
                "elev": 13,
                "priority": 2
            }
        },
        {
            "type": "Feature",
            "geometry": {
                "type": "Point",
                "coordinates": [
                    -125.269,
                    49.951
                ]
            },
            "properties": {
                "siteID": "CYBL",
                "name": "Campbell River Arpt",
                "elev": 94,
                "priority": 5
            }
        },
        {
            "type": "Feature",
            "geometry": {
                "type": "Point",
                "coordinates": [
                    -97.022,
                    52.36
                ]
            },
            "properties": {
                "siteID": "CYBV",
                "name": "Berens River Arpt",
                "elev": 219,
                "priority": 3
            }
        },
        {
            "type": "Feature",
            "geometry": {
                "type": "Point",
                "coordinates": [
                    -65.466,
                    47.011
                ]
            },
            "properties": {
                "siteID": "CYCH",
                "name": "Chatham",
                "elev": 31,
                "priority": 9
            }
        },
        {
            "type": "Feature",
            "geometry": {
                "type": "Point",
                "coordinates": [
                    -121.62,
                    55.689
                ]
            },
            "properties": {
                "siteID": "CYCQ",
                "name": "Chetwynd Arpt",
                "elev": 614,
                "priority": 4
            }
        },
        {
            "type": "Feature",
            "geometry": {
                "type": "Point",
                "coordinates": [
                    -90.727,
                    63.345
                ]
            },
            "properties": {
                "siteID": "CYCS",
                "name": "Chesterfield Inlet Arpt",
                "elev": 7,
                "priority": 4
            }
        },
        {
            "type": "Feature",
            "geometry": {
                "type": "Point",
                "coordinates": [
                    -120.514,
                    49.468
                ]
            },
            "properties": {
                "siteID": "CYDC",
                "name": "Princeton Arpt",
                "elev": 703,
                "priority": 4
            }
        },
        {
            "type": "Feature",
            "geometry": {
                "type": "Point",
                "coordinates": [
                    -120.188,
                    55.741
                ]
            },
            "properties": {
                "siteID": "CYDQ",
                "name": "Dawson Creek Arpt",
                "elev": 658,
                "priority": 4
            }
        },
        {
            "type": "Feature",
            "geometry": {
                "type": "Point",
                "coordinates": [
                    -82.558,
                    46.351
                ]
            },
            "properties": {
                "siteID": "CYEL",
                "name": "Elliot Lake Arpt",
                "elev": 327,
                "priority": 9
            }
        },
        {
            "type": "Feature",
            "geometry": {
                "type": "Point",
                "coordinates": [
                    -101.68,
                    54.678
                ]
            },
            "properties": {
                "siteID": "CYFO",
                "name": "Flin Flon Arpto",
                "elev": 303,
                "priority": 4
            }
        },
        {
            "type": "Feature",
            "geometry": {
                "type": "Point",
                "coordinates": [
                    -113.688,
                    61.178
                ]
            },
            "properties": {
                "siteID": "CYFR",
                "name": "Fort Resolution Arpt",
                "elev": 159,
                "priority": 3
            }
        },
        {
            "type": "Feature",
            "geometry": {
                "type": "Point",
                "coordinates": [
                    -59.189,
                    55.082
                ]
            },
            "properties": {
                "siteID": "CYFT",
                "name": "Makkovik Arpt",
                "elev": 65,
                "priority": 4
            }
        },
        {
            "type": "Feature",
            "geometry": {
                "type": "Point",
                "coordinates": [
                    -116.984,
                    51.3
                ]
            },
            "properties": {
                "siteID": "CYGE",
                "name": "Golden Arpt",
                "elev": 786,
                "priority": 4
            }
        },
        {
            "type": "Feature",
            "geometry": {
                "type": "Point",
                "coordinates": [
                    -128.644,
                    66.242
                ]
            },
            "properties": {
                "siteID": "CYGH",
                "name": "Fort Good Hope Arpt",
                "elev": 72,
                "priority": 3
            }
        },
        {
            "type": "Feature",
            "geometry": {
                "type": "Point",
                "coordinates": [
                    -97.05,
                    50.63
                ]
            },
            "properties": {
                "siteID": "CYGM",
                "name": "Gimli",
                "elev": 230,
                "priority": 9
            }
        },
        {
            "type": "Feature",
            "geometry": {
                "type": "Point",
                "coordinates": [
                    -81.82,
                    69.37
                ]
            },
            "properties": {
                "siteID": "CYGT",
                "name": "Igloolik Arpt",
                "elev": 49,
                "priority": 4
            }
        },
        {
            "type": "Feature",
            "geometry": {
                "type": "Point",
                "coordinates": [
                    -77.76,
                    55.283
                ]
            },
            "properties": {
                "siteID": "CYGW",
                "name": "Kuujjuarapik Arpt",
                "elev": 13,
                "priority": 0
            }
        },
        {
            "type": "Feature",
            "geometry": {
                "type": "Point",
                "coordinates": [
                    -69.624,
                    61.048
                ]
            },
            "properties": {
                "siteID": "CYHA",
                "name": "Quaqtaq Arpt",
                "elev": 31,
                "priority": 3
            }
        },
        {
            "type": "Feature",
            "geometry": {
                "type": "Point",
                "coordinates": [
                    -121.493,
                    49.37
                ]
            },
            "properties": {
                "siteID": "CYHE",
                "name": "Hope Rgnl Airpark",
                "elev": 43,
                "priority": 3
            }
        },
        {
            "type": "Feature",
            "geometry": {
                "type": "Point",
                "coordinates": [
                    -76.138,
                    51.691
                ]
            },
            "properties": {
                "siteID": "CYHH",
                "name": "Nemiscau Arpt",
                "elev": 245,
                "priority": 3
            }
        },
        {
            "type": "Feature",
            "geometry": {
                "type": "Point",
                "coordinates": [
                    -117.8,
                    70.761
                ]
            },
            "properties": {
                "siteID": "CYHI",
                "name": "Ulukhaktok/Holman Arpt",
                "elev": 33,
                "priority": 2
            }
        },
        {
            "type": "Feature",
            "geometry": {
                "type": "Point",
                "coordinates": [
                    -77.925,
                    62.417
                ]
            },
            "properties": {
                "siteID": "CYIK",
                "name": "Ivujivik Arpt",
                "elev": 44,
                "priority": 3
            }
        },
        {
            "type": "Feature",
            "geometry": {
                "type": "Point",
                "coordinates": [
                    -123.47,
                    60.236
                ]
            },
            "properties": {
                "siteID": "CYJF",
                "name": "Fort Liard Arpt",
                "elev": 215,
                "priority": 3
            }
        },
        {
            "type": "Feature",
            "geometry": {
                "type": "Point",
                "coordinates": [
                    -66,
                    58.72
                ]
            },
            "properties": {
                "siteID": "CYKB",
                "name": "Kangiqsualujjua",
                "elev": 58,
                "priority": 9
            }
        },
        {
            "type": "Feature",
            "geometry": {
                "type": "Point",
                "coordinates": [
                    -135.013,
                    68.227
                ]
            },
            "properties": {
                "siteID": "CYKD",
                "name": "Aklavik Arpt",
                "elev": 7,
                "priority": 4
            }
        },
        {
            "type": "Feature",
            "geometry": {
                "type": "Point",
                "coordinates": [
                    -71.932,
                    61.591
                ]
            },
            "properties": {
                "siteID": "CYKG",
                "name": "Kangiqsujuaq Arpt",
                "elev": 134,
                "priority": 2
            }
        },
        {
            "type": "Feature",
            "geometry": {
                "type": "Point",
                "coordinates": [
                    -78.154,
                    60.818
                ]
            },
            "properties": {
                "siteID": "CYKO",
                "name": "Akulivik Arpt",
                "elev": 23,
                "priority": 3
            }
        },
        {
            "type": "Feature",
            "geometry": {
                "type": "Point",
                "coordinates": [
                    -78.752,
                    51.476
                ]
            },
            "properties": {
                "siteID": "CYKQ",
                "name": "Waskaganish Arpt",
                "elev": 28,
                "priority": 4
            }
        },
        {
            "type": "Feature",
            "geometry": {
                "type": "Point",
                "coordinates": [
                    -79.368,
                    43.866
                ]
            },
            "properties": {
                "siteID": "CYKZ",
                "name": "Toronto/Buttonville Muni",
                "elev": 198,
                "priority": 5
            }
        },
        {
            "type": "Feature",
            "geometry": {
                "type": "Point",
                "coordinates": [
                    -69.598,
                    59.302
                ]
            },
            "properties": {
                "siteID": "CYLA",
                "name": "Apaluk Arpt",
                "elev": 35,
                "priority": 4
            }
        },
        {
            "type": "Feature",
            "geometry": {
                "type": "Point",
                "coordinates": [
                    -69.88,
                    62.85
                ]
            },
            "properties": {
                "siteID": "CYLC",
                "name": "Kimmirut Arpt",
                "elev": 52,
                "priority": 3
            }
        },
        {
            "type": "Feature",
            "geometry": {
                "type": "Point",
                "coordinates": [
                    -87.936,
                    52.196
                ]
            },
            "properties": {
                "siteID": "CYLH",
                "name": "Lansdowne House Arpt",
                "elev": 245,
                "priority": 3
            }
        },
        {
            "type": "Feature",
            "geometry": {
                "type": "Point",
                "coordinates": [
                    -110.682,
                    62.419
                ]
            },
            "properties": {
                "siteID": "CYLK",
                "name": "Lutselke Arpt",
                "elev": 183,
                "priority": 3
            }
        },
        {
            "type": "Feature",
            "geometry": {
                "type": "Point",
                "coordinates": [
                    -62.317,
                    82.512
                ]
            },
            "properties": {
                "siteID": "CYLT",
                "name": "Alert Arpt",
                "elev": 9,
                "priority": 1
            }
        },
        {
            "type": "Feature",
            "geometry": {
                "type": "Point",
                "coordinates": [
                    -65.989,
                    58.708
                ]
            },
            "properties": {
                "siteID": "CYLU",
                "name": "Kangiksualujjuaq Arpt",
                "elev": 61,
                "priority": 3
            }
        },
        {
            "type": "Feature",
            "geometry": {
                "type": "Point",
                "coordinates": [
                    -70.232,
                    47.6
                ]
            },
            "properties": {
                "siteID": "CYML",
                "name": "Charlevoix Arpt",
                "elev": 287,
                "priority": 9
            }
        },
        {
            "type": "Feature",
            "geometry": {
                "type": "Point",
                "coordinates": [
                    -76.52,
                    56.538
                ]
            },
            "properties": {
                "siteID": "CYMU",
                "name": "Umiujaq Arpt",
                "elev": 69,
                "priority": 3
            }
        },
        {
            "type": "Feature",
            "geometry": {
                "type": "Point",
                "coordinates": [
                    -78.825,
                    53.011
                ]
            },
            "properties": {
                "siteID": "CYNC",
                "name": "Wemindji Arpt",
                "elev": 13,
                "priority": 4
            }
        },
        {
            "type": "Feature",
            "geometry": {
                "type": "Point",
                "coordinates": [
                    -75.563,
                    45.52
                ]
            },
            "properties": {
                "siteID": "CYND",
                "name": "Gatineau/Ottawa Exec",
                "elev": 57,
                "priority": 5
            }
        },
        {
            "type": "Feature",
            "geometry": {
                "type": "Point",
                "coordinates": [
                    -110.606,
                    64.706
                ]
            },
            "properties": {
                "siteID": "CYOA",
                "name": "Ekati Arpt",
                "elev": 461,
                "priority": 3
            }
        },
        {
            "type": "Feature",
            "geometry": {
                "type": "Point",
                "coordinates": [
                    -139.846,
                    67.568
                ]
            },
            "properties": {
                "siteID": "CYOC",
                "name": "Old Crow Arpt",
                "elev": 253,
                "priority": 2
            }
        },
        {
            "type": "Feature",
            "geometry": {
                "type": "Point",
                "coordinates": [
                    -124.077,
                    69.355
                ]
            },
            "properties": {
                "siteID": "CYPC",
                "name": "Paulatuk Arpt",
                "elev": 5,
                "priority": 4
            }
        },
        {
            "type": "Feature",
            "geometry": {
                "type": "Point",
                "coordinates": [
                    -124.499,
                    49.835
                ]
            },
            "properties": {
                "siteID": "CYPW",
                "name": "Powell River Arpt",
                "elev": 122,
                "priority": 6
            }
        },
        {
            "type": "Feature",
            "geometry": {
                "type": "Point",
                "coordinates": [
                    -77.281,
                    60.045
                ]
            },
            "properties": {
                "siteID": "CYPX",
                "name": "Puvungnituq Arpt",
                "elev": 10,
                "priority": 4
            }
        },
        {
            "type": "Feature",
            "geometry": {
                "type": "Point",
                "coordinates": [
                    -111.117,
                    58.766
                ]
            },
            "properties": {
                "siteID": "CYPY",
                "name": "Fort Chipewyan Arpt",
                "elev": 225,
                "priority": 3
            }
        },
        {
            "type": "Feature",
            "geometry": {
                "type": "Point",
                "coordinates": [
                    -117.313,
                    64.115
                ]
            },
            "properties": {
                "siteID": "CYRA",
                "name": "Gameti/Rae Lakes Arpt",
                "elev": 232,
                "priority": 4
            }
        },
        {
            "type": "Feature",
            "geometry": {
                "type": "Point",
                "coordinates": [
                    -118.176,
                    50.958
                ]
            },
            "properties": {
                "siteID": "CYRV",
                "name": "Revelstoke Arpt",
                "elev": 456,
                "priority": 3
            }
        },
        {
            "type": "Feature",
            "geometry": {
                "type": "Point",
                "coordinates": [
                    -111.19,
                    50.273
                ]
            },
            "properties": {
                "siteID": "CYSD",
                "name": "Suffield Arpt",
                "elev": 767,
                "priority": 5
            }
        },
        {
            "type": "Feature",
            "geometry": {
                "type": "Point",
                "coordinates": [
                    -79.242,
                    56.538
                ]
            },
            "properties": {
                "siteID": "CYSK",
                "name": "Sanikiluaq Arpt",
                "elev": 28,
                "priority": 3
            }
        },
        {
            "type": "Feature",
            "geometry": {
                "type": "Point",
                "coordinates": [
                    -67.836,
                    47.157
                ]
            },
            "properties": {
                "siteID": "CYSL",
                "name": "Saint Leonard Arpt",
                "elev": 242,
                "priority": 5
            }
        },
        {
            "type": "Feature",
            "geometry": {
                "type": "Point",
                "coordinates": [
                    -79.176,
                    43.192
                ]
            },
            "properties": {
                "siteID": "CYSN",
                "name": "St Catharines/Niagara Arpt",
                "elev": 96,
                "priority": 6
            }
        },
        {
            "type": "Feature",
            "geometry": {
                "type": "Point",
                "coordinates": [
                    -86.351,
                    48.759
                ]
            },
            "properties": {
                "siteID": "CYSP",
                "name": "Marathon Arpt",
                "elev": 312,
                "priority": 6
            }
        },
        {
            "type": "Feature",
            "geometry": {
                "type": "Point",
                "coordinates": [
                    -125.241,
                    71.993
                ]
            },
            "properties": {
                "siteID": "CYSY",
                "name": "Sachs Harbour Arpt",
                "elev": 83,
                "priority": 3
            }
        },
        {
            "type": "Feature",
            "geometry": {
                "type": "Point",
                "coordinates": [
                    -76.528,
                    64.23
                ]
            },
            "properties": {
                "siteID": "CYTE",
                "name": "Cape Dorset Arpt",
                "elev": 49,
                "priority": 2
            }
        },
        {
            "type": "Feature",
            "geometry": {
                "type": "Point",
                "coordinates": [
                    -69.948,
                    58.671
                ]
            },
            "properties": {
                "siteID": "CYTQ",
                "name": "Tasiujaq Arpt",
                "elev": 14,
                "priority": 3
            }
        },
        {
            "type": "Feature",
            "geometry": {
                "type": "Point",
                "coordinates": [
                    -133.026,
                    69.434
                ]
            },
            "properties": {
                "siteID": "CYUB",
                "name": "Tuktoyaktuk Arpt",
                "elev": 5,
                "priority": 2
            }
        },
        {
            "type": "Feature",
            "geometry": {
                "type": "Point",
                "coordinates": [
                    -86.23,
                    66.525
                ]
            },
            "properties": {
                "siteID": "CYUT",
                "name": "Repulse Bay Arpt",
                "elev": 22,
                "priority": 0
            }
        },
        {
            "type": "Feature",
            "geometry": {
                "type": "Point",
                "coordinates": [
                    -78.83,
                    48.209
                ]
            },
            "properties": {
                "siteID": "CYUY",
                "name": "Rouyn/Noranda Arpt",
                "elev": 304,
                "priority": 4
            }
        },
        {
            "type": "Feature",
            "geometry": {
                "type": "Point",
                "coordinates": [
                    -64.026,
                    67.552
                ]
            },
            "properties": {
                "siteID": "CYVM",
                "name": "Broughton Isl/Qikiqtarjuaq Arpt",
                "elev": 3,
                "priority": 6
            }
        },
        {
            "type": "Feature",
            "geometry": {
                "type": "Point",
                "coordinates": [
                    -108.418,
                    55.842
                ]
            },
            "properties": {
                "siteID": "CYVT",
                "name": "Buffalo Narrows Arpt",
                "elev": 438,
                "priority": 3
            }
        },
        {
            "type": "Feature",
            "geometry": {
                "type": "Point",
                "coordinates": [
                    -114.078,
                    64.192
                ]
            },
            "properties": {
                "siteID": "CYWE",
                "name": "Wekwe\u00e8t\u00ec Arpt",
                "elev": 374,
                "priority": 3
            }
        },
        {
            "type": "Feature",
            "geometry": {
                "type": "Point",
                "coordinates": [
                    -123.387,
                    48.423
                ]
            },
            "properties": {
                "siteID": "CYWH",
                "name": "Victoria Harbour Arpt",
                "elev": 4,
                "priority": 6
            }
        },
        {
            "type": "Feature",
            "geometry": {
                "type": "Point",
                "coordinates": [
                    -123.434,
                    65.209
                ]
            },
            "properties": {
                "siteID": "CYWJ",
                "name": "D\u00e9line Arpt",
                "elev": 208,
                "priority": 3
            }
        },
        {
            "type": "Feature",
            "geometry": {
                "type": "Point",
                "coordinates": [
                    -123.434,
                    63.21
                ]
            },
            "properties": {
                "siteID": "CYWY",
                "name": "Wrigley Arpt",
                "elev": 135,
                "priority": 3
            }
        },
        {
            "type": "Feature",
            "geometry": {
                "type": "Point",
                "coordinates": [
                    -110.717,
                    50.018
                ]
            },
            "properties": {
                "siteID": "CYXH",
                "name": "Medicine Hat Arpt",
                "elev": 717,
                "priority": 3
            }
        },
        {
            "type": "Feature",
            "geometry": {
                "type": "Point",
                "coordinates": [
                    -92.597,
                    62.238
                ]
            },
            "properties": {
                "siteID": "CYXN",
                "name": "Whale Cove Arpt",
                "elev": 9,
                "priority": 4
            }
        },
        {
            "type": "Feature",
            "geometry": {
                "type": "Point",
                "coordinates": [
                    -65.712,
                    66.144
                ]
            },
            "properties": {
                "siteID": "CYXP",
                "name": "Pangnirtung Arpt",
                "elev": 29,
                "priority": 3
            }
        },
        {
            "type": "Feature",
            "geometry": {
                "type": "Point",
                "coordinates": [
                    -140.866,
                    62.408
                ]
            },
            "properties": {
                "siteID": "CYXQ",
                "name": "Beaver Creek Arpt",
                "elev": 663,
                "priority": 5
            }
        },
        {
            "type": "Feature",
            "geometry": {
                "type": "Point",
                "coordinates": [
                    -93.568,
                    69.543
                ]
            },
            "properties": {
                "siteID": "CYYH",
                "name": "Taloyoak Arpt",
                "elev": 19,
                "priority": 1
            }
        },
        {
            "type": "Feature",
            "geometry": {
                "type": "Point",
                "coordinates": [
                    -82.57,
                    45.885
                ]
            },
            "properties": {
                "siteID": "CYZE",
                "name": "Gore Bay/Manitoulin Arpt",
                "elev": 189,
                "priority": 3
            }
        },
        {
            "type": "Feature",
            "geometry": {
                "type": "Point",
                "coordinates": [
                    -75.67,
                    62.181
                ]
            },
            "properties": {
                "siteID": "CYZG",
                "name": "Salliut Arpt",
                "elev": 217,
                "priority": 3
            }
        },
        {
            "type": "Feature",
            "geometry": {
                "type": "Point",
                "coordinates": [
                    -131.814,
                    53.254
                ]
            },
            "properties": {
                "siteID": "CYZP",
                "name": "Sandspit Arpt",
                "elev": 7,
                "priority": 3
            }
        },
        {
            "type": "Feature",
            "geometry": {
                "type": "Point",
                "coordinates": [
                    -132.734,
                    60.175
                ]
            },
            "properties": {
                "siteID": "CYZW",
                "name": "Teslin Arpt",
                "elev": 700,
                "priority": 7
            }
        },
        {
            "type": "Feature",
            "geometry": {
                "type": "Point",
                "coordinates": [
                    -123.135,
                    55.303
                ]
            },
            "properties": {
                "siteID": "CYZY",
                "name": "Mackenzie Arpt",
                "elev": 694,
                "priority": 3
            }
        },
        {
            "type": "Feature",
            "geometry": {
                "type": "Point",
                "coordinates": [
                    -78.52,
                    52.23
                ]
            },
            "properties": {
                "siteID": "CZEM",
                "name": "Eastmain River Arpt",
                "elev": 9,
                "priority": 3
            }
        },
        {
            "type": "Feature",
            "geometry": {
                "type": "Point",
                "coordinates": [
                    -133.385,
                    62.211
                ]
            },
            "properties": {
                "siteID": "CZFA",
                "name": "Faro Arpt",
                "elev": 702,
                "priority": 3
            }
        },
        {
            "type": "Feature",
            "geometry": {
                "type": "Point",
                "coordinates": [
                    -134.871,
                    67.41
                ]
            },
            "properties": {
                "siteID": "CZFM",
                "name": "Fort McPherson Arpt",
                "elev": 33,
                "priority": 3
            }
        },
        {
            "type": "Feature",
            "geometry": {
                "type": "Point",
                "coordinates": [
                    -125.563,
                    64.908
                ]
            },
            "properties": {
                "siteID": "CZFN",
                "name": "Fort Norman Arpt",
                "elev": 135,
                "priority": 4
            }
        },
        {
            "type": "Feature",
            "geometry": {
                "type": "Point",
                "coordinates": [
                    -132.12,
                    54.023
                ]
            },
            "properties": {
                "siteID": "CZMT",
                "name": "Masset Arpt",
                "elev": 11,
                "priority": 6
            }
        },
        {
            "type": "Feature",
            "geometry": {
                "type": "Point",
                "coordinates": [
                    -99.6217,
                    48.8821
                ]
            },
            "properties": {
                "siteID": "K06D",
                "name": "Rolla Muni",
                "elev": 554,
                "priority": 4
            }
        },
        {
            "type": "Feature",
            "geometry": {
                "type": "Point",
                "coordinates": [
                    -102.404,
                    48.3018
                ]
            },
            "properties": {
                "siteID": "K08D",
                "name": "Stanley Muni",
                "elev": 683,
                "priority": 5
            }
        },
        {
            "type": "Feature",
            "geometry": {
                "type": "Point",
                "coordinates": [
                    -103.62,
                    43.73
                ]
            },
            "properties": {
                "siteID": "K0V1",
                "name": "Custer (RAMOS)",
                "elev": 1707,
                "priority": 9
            }
        },
        {
            "type": "Feature",
            "geometry": {
                "type": "Point",
                "coordinates": [
                    -103.985,
                    46.9251
                ]
            },
            "properties": {
                "siteID": "K20U",
                "name": "Beach Arpt",
                "elev": 839,
                "priority": 5
            }
        },
        {
            "type": "Feature",
            "geometry": {
                "type": "Point",
                "coordinates": [
                    -97.6297,
                    48.7838
                ]
            },
            "properties": {
                "siteID": "K2C8",
                "name": "Cavalier Muni",
                "elev": 271,
                "priority": 4
            }
        },
        {
            "type": "Feature",
            "geometry": {
                "type": "Point",
                "coordinates": [
                    -98.083,
                    46.1739
                ]
            },
            "properties": {
                "siteID": "K2D5",
                "name": "Oakes Muni",
                "elev": 407,
                "priority": 5
            }
        },
        {
            "type": "Feature",
            "geometry": {
                "type": "Point",
                "coordinates": [
                    -103.547,
                    45.6043
                ]
            },
            "properties": {
                "siteID": "K2WX",
                "name": "Buffalo/Harding Cnty",
                "elev": 925,
                "priority": 3
            }
        },
        {
            "type": "Feature",
            "geometry": {
                "type": "Point",
                "coordinates": [
                    -124.28,
                    42.05
                ]
            },
            "properties": {
                "siteID": "K4BK",
                "name": "Brookings",
                "elev": 24,
                "priority": 9
            }
        },
        {
            "type": "Feature",
            "geometry": {
                "type": "Point",
                "coordinates": [
                    -120.35,
                    42.22
                ]
            },
            "properties": {
                "siteID": "K4LW",
                "name": "Lakeview",
                "elev": 1455,
                "priority": 9
            }
        },
        {
            "type": "Feature",
            "geometry": {
                "type": "Point",
                "coordinates": [
                    -99.9346,
                    47.7906
                ]
            },
            "properties": {
                "siteID": "K5H4",
                "name": "Harvey Muni",
                "elev": 490,
                "priority": 4
            }
        },
        {
            "type": "Feature",
            "geometry": {
                "type": "Point",
                "coordinates": [
                    -100.245,
                    46.219
                ]
            },
            "properties": {
                "siteID": "K7L2",
                "name": "Linton Muni",
                "elev": 541,
                "priority": 4
            }
        },
        {
            "type": "Feature",
            "geometry": {
                "type": "Point",
                "coordinates": [
                    -96.9918,
                    45.669
                ]
            },
            "properties": {
                "siteID": "K8D3",
                "name": "Sisseton Muni",
                "elev": 535,
                "priority": 4
            }
        },
        {
            "type": "Feature",
            "geometry": {
                "type": "Point",
                "coordinates": [
                    -113.115,
                    48.601
                ]
            },
            "properties": {
                "siteID": "K8S0",
                "name": "Browning/Star Arstrp",
                "elev": 1419,
                "priority": 4
            }
        },
        {
            "type": "Feature",
            "geometry": {
                "type": "Point",
                "coordinates": [
                    -97.9053,
                    48.9402
                ]
            },
            "properties": {
                "siteID": "K96D",
                "name": "Walhalla Muni",
                "elev": 290,
                "priority": 6
            }
        },
        {
            "type": "Feature",
            "geometry": {
                "type": "Point",
                "coordinates": [
                    -99.2346,
                    48.4816
                ]
            },
            "properties": {
                "siteID": "K9D7",
                "name": "Cando Muni",
                "elev": 451,
                "priority": 5
            }
        },
        {
            "type": "Feature",
            "geometry": {
                "type": "Point",
                "coordinates": [
                    -95.2135,
                    46.4502
                ]
            },
            "properties": {
                "siteID": "KADC",
                "name": "Wadena Muni",
                "elev": 416,
                "priority": 4
            }
        },
        {
            "type": "Feature",
            "geometry": {
                "type": "Point",
                "coordinates": [
                    -93.3722,
                    43.6823
                ]
            },
            "properties": {
                "siteID": "KAEL",
                "name": "Albert Lea Muni",
                "elev": 382,
                "priority": 4
            }
        },
        {
            "type": "Feature",
            "geometry": {
                "type": "Point",
                "coordinates": [
                    -72.0013,
                    42.8067
                ]
            },
            "properties": {
                "siteID": "KAFN",
                "name": "Jaffrey Muni",
                "elev": 308,
                "priority": 6
            }
        },
        {
            "type": "Feature",
            "geometry": {
                "type": "Point",
                "coordinates": [
                    -79.9215,
                    40.3551
                ]
            },
            "properties": {
                "siteID": "KAGC",
                "name": "Pittsburgh/Allegheny Cnty",
                "elev": 380,
                "priority": 5
            }
        },
        {
            "type": "Feature",
            "geometry": {
                "type": "Point",
                "coordinates": [
                    -102.802,
                    42.0573
                ]
            },
            "properties": {
                "siteID": "KAIA",
                "name": "Alliance Muni",
                "elev": 1198,
                "priority": 4
            }
        },
        {
            "type": "Feature",
            "geometry": {
                "type": "Point",
                "coordinates": [
                    -85.6097,
                    40.1061
                ]
            },
            "properties": {
                "siteID": "KAID",
                "name": "Anderson Muni",
                "elev": 277,
                "priority": 5
            }
        },
        {
            "type": "Feature",
            "geometry": {
                "type": "Point",
                "coordinates": [
                    -93.6754,
                    46.5483
                ]
            },
            "properties": {
                "siteID": "KAIT",
                "name": "Aitkin Muni",
                "elev": 367,
                "priority": 5
            }
        },
        {
            "type": "Feature",
            "geometry": {
                "type": "Point",
                "coordinates": [
                    -90.0316,
                    38.8897
                ]
            },
            "properties": {
                "siteID": "KALN",
                "name": "Alton/St Louis Rgnl",
                "elev": 159,
                "priority": 5
            }
        },
        {
            "type": "Feature",
            "geometry": {
                "type": "Point",
                "coordinates": [
                    -118.286,
                    46.0946
                ]
            },
            "properties": {
                "siteID": "KALW",
                "name": "Walla Walla Rgnl",
                "elev": 355,
                "priority": 4
            }
        },
        {
            "type": "Feature",
            "geometry": {
                "type": "Point",
                "coordinates": [
                    -93.2127,
                    45.1426
                ]
            },
            "properties": {
                "siteID": "KANE",
                "name": "Blaine/Anoka Cnty",
                "elev": 276,
                "priority": 6
            }
        },
        {
            "type": "Feature",
            "geometry": {
                "type": "Point",
                "coordinates": [
                    -99.9984,
                    42.5748
                ]
            },
            "properties": {
                "siteID": "KANW",
                "name": "Ainsworth Muni",
                "elev": 788,
                "priority": 5
            }
        },
        {
            "type": "Feature",
            "geometry": {
                "type": "Point",
                "coordinates": [
                    -78.3168,
                    40.2999
                ]
            },
            "properties": {
                "siteID": "KAOO",
                "name": "Altoona/Blair Cnty",
                "elev": 450,
                "priority": 4
            }
        },
        {
            "type": "Feature",
            "geometry": {
                "type": "Point",
                "coordinates": [
                    -96.0041,
                    45.2249
                ]
            },
            "properties": {
                "siteID": "KAQP",
                "name": "Appleton Muni",
                "elev": 312,
                "priority": 4
            }
        },
        {
            "type": "Feature",
            "geometry": {
                "type": "Point",
                "coordinates": [
                    -83.7398,
                    42.2239
                ]
            },
            "properties": {
                "siteID": "KARB",
                "name": "Ann Arbor Muni",
                "elev": 251,
                "priority": 5
            }
        },
        {
            "type": "Feature",
            "geometry": {
                "type": "Point",
                "coordinates": [
                    -88.4815,
                    41.7713
                ]
            },
            "properties": {
                "siteID": "KARR",
                "name": "Aurora Muni",
                "elev": 213,
                "priority": 5
            }
        },
        {
            "type": "Feature",
            "geometry": {
                "type": "Point",
                "coordinates": [
                    -76.0261,
                    43.9888
                ]
            },
            "properties": {
                "siteID": "KART",
                "name": "Watertown Intl",
                "elev": 100,
                "priority": 3
            }
        },
        {
            "type": "Feature",
            "geometry": {
                "type": "Point",
                "coordinates": [
                    -89.7307,
                    45.9264
                ]
            },
            "properties": {
                "siteID": "KARV",
                "name": "Woodruff/Lakeland Arpt",
                "elev": 494,
                "priority": 5
            }
        },
        {
            "type": "Feature",
            "geometry": {
                "type": "Point",
                "coordinates": [
                    -71.5141,
                    42.7798
                ]
            },
            "properties": {
                "siteID": "KASH",
                "name": "Nashua/Boire Fld",
                "elev": 56,
                "priority": 4
            }
        },
        {
            "type": "Feature",
            "geometry": {
                "type": "Point",
                "coordinates": [
                    -88.526,
                    44.2519
                ]
            },
            "properties": {
                "siteID": "KATW",
                "name": "Appleton/Outagamie Cnty",
                "elev": 266,
                "priority": 5
            }
        },
        {
            "type": "Feature",
            "geometry": {
                "type": "Point",
                "coordinates": [
                    -97.1496,
                    44.9045
                ]
            },
            "properties": {
                "siteID": "KATY",
                "name": "Watertown Rgnl",
                "elev": 531,
                "priority": 4
            }
        },
        {
            "type": "Feature",
            "geometry": {
                "type": "Point",
                "coordinates": [
                    -69.797,
                    44.3161
                ]
            },
            "properties": {
                "siteID": "KAUG",
                "name": "Augusta/State Arpt",
                "elev": 107,
                "priority": 3
            }
        },
        {
            "type": "Feature",
            "geometry": {
                "type": "Point",
                "coordinates": [
                    -89.6248,
                    44.9265
                ]
            },
            "properties": {
                "siteID": "KAUW",
                "name": "Wausau Downtown",
                "elev": 367,
                "priority": 3
            }
        },
        {
            "type": "Feature",
            "geometry": {
                "type": "Point",
                "coordinates": [
                    -122.159,
                    48.1584
                ]
            },
            "properties": {
                "siteID": "KAWO",
                "name": "Arlington Muni",
                "elev": 38,
                "priority": 5
            }
        },
        {
            "type": "Feature",
            "geometry": {
                "type": "Point",
                "coordinates": [
                    -95.394,
                    45.868
                ]
            },
            "properties": {
                "siteID": "KAXN",
                "name": "Alexandria/Chandler Fld",
                "elev": 433,
                "priority": 3
            }
        },
        {
            "type": "Feature",
            "geometry": {
                "type": "Point",
                "coordinates": [
                    -71.6,
                    42.57
                ]
            },
            "properties": {
                "siteID": "KAYE",
                "name": "Fort Devens/Aye",
                "elev": 82,
                "priority": 9
            }
        },
        {
            "type": "Feature",
            "geometry": {
                "type": "Point",
                "coordinates": [
                    -85.546,
                    42.2283
                ]
            },
            "properties": {
                "siteID": "KAZO",
                "name": "Kalamazoo Intl",
                "elev": 264,
                "priority": 4
            }
        },
        {
            "type": "Feature",
            "geometry": {
                "type": "Point",
                "coordinates": [
                    -98.0179,
                    46.9419
                ]
            },
            "properties": {
                "siteID": "KBAC",
                "name": "Barnes Cnty Muni",
                "elev": 423,
                "priority": 5
            }
        },
        {
            "type": "Feature",
            "geometry": {
                "type": "Point",
                "coordinates": [
                    -72.7124,
                    42.16
                ]
            },
            "properties": {
                "siteID": "KBAF",
                "name": "Westfield/Barnes Muni",
                "elev": 80,
                "priority": 6
            }
        },
        {
            "type": "Feature",
            "geometry": {
                "type": "Point",
                "coordinates": [
                    -85.8926,
                    39.2664
                ]
            },
            "properties": {
                "siteID": "KBAK",
                "name": "Columbus Muni",
                "elev": 199,
                "priority": 4
            }
        },
        {
            "type": "Feature",
            "geometry": {
                "type": "Point",
                "coordinates": [
                    -95.6469,
                    45.331
                ]
            },
            "properties": {
                "siteID": "KBBB",
                "name": "Benson Muni",
                "elev": 315,
                "priority": 5
            }
        },
        {
            "type": "Feature",
            "geometry": {
                "type": "Point",
                "coordinates": [
                    -99.6385,
                    41.4365
                ]
            },
            "properties": {
                "siteID": "KBBW",
                "name": "Broken Bow Muni",
                "elev": 771,
                "priority": 3
            }
        },
        {
            "type": "Feature",
            "geometry": {
                "type": "Point",
                "coordinates": [
                    -95.1258,
                    45.1111
                ]
            },
            "properties": {
                "siteID": "KBDH",
                "name": "Willmar Muni",
                "elev": 341,
                "priority": 4
            }
        },
        {
            "type": "Feature",
            "geometry": {
                "type": "Point",
                "coordinates": [
                    -71.2946,
                    42.4681
                ]
            },
            "properties": {
                "siteID": "KBED",
                "name": "Bedford/Hanscom Fld",
                "elev": 39,
                "priority": 6
            }
        },
        {
            "type": "Feature",
            "geometry": {
                "type": "Point",
                "coordinates": [
                    -86.4152,
                    42.129
                ]
            },
            "properties": {
                "siteID": "KBEH",
                "name": "Benton Harbor/SW Michigan Rgnl",
                "elev": 196,
                "priority": 4
            }
        },
        {
            "type": "Feature",
            "geometry": {
                "type": "Point",
                "coordinates": [
                    -78.6354,
                    41.7984
                ]
            },
            "properties": {
                "siteID": "KBFD",
                "name": "Bradford Rgnl",
                "elev": 642,
                "priority": 3
            }
        },
        {
            "type": "Feature",
            "geometry": {
                "type": "Point",
                "coordinates": [
                    -122.315,
                    47.5455
                ]
            },
            "properties": {
                "siteID": "KBFI",
                "name": "Seattle/Boeing Fld",
                "elev": 7,
                "priority": 6
            }
        },
        {
            "type": "Feature",
            "geometry": {
                "type": "Point",
                "coordinates": [
                    -91.4098,
                    47.2521
                ]
            },
            "properties": {
                "siteID": "KBFW",
                "name": "Silver Bay Muni",
                "elev": 335,
                "priority": 5
            }
        },
        {
            "type": "Feature",
            "geometry": {
                "type": "Point",
                "coordinates": [
                    -68.3617,
                    44.4549
                ]
            },
            "properties": {
                "siteID": "KBHB",
                "name": "Bar Harbor/Hancock Cnty",
                "elev": 21,
                "priority": 4
            }
        },
        {
            "type": "Feature",
            "geometry": {
                "type": "Point",
                "coordinates": [
                    -104.261,
                    46.3521
                ]
            },
            "properties": {
                "siteID": "KBHK",
                "name": "Baker Muni",
                "elev": 904,
                "priority": 4
            }
        },
        {
            "type": "Feature",
            "geometry": {
                "type": "Point",
                "coordinates": [
                    -96.7517,
                    40.3005
                ]
            },
            "properties": {
                "siteID": "KBIE",
                "name": "Beatrice Muni",
                "elev": 398,
                "priority": 4
            }
        },
        {
            "type": "Feature",
            "geometry": {
                "type": "Point",
                "coordinates": [
                    -117.81,
                    44.843
                ]
            },
            "properties": {
                "siteID": "KBKE",
                "name": "Baker Muni",
                "elev": 1025,
                "priority": 3
            }
        },
        {
            "type": "Feature",
            "geometry": {
                "type": "Point",
                "coordinates": [
                    -96.8183,
                    44.3075
                ]
            },
            "properties": {
                "siteID": "KBKX",
                "name": "Brookings Rgnl",
                "elev": 494,
                "priority": 4
            }
        },
        {
            "type": "Feature",
            "geometry": {
                "type": "Point",
                "coordinates": [
                    -122.541,
                    48.7991
                ]
            },
            "properties": {
                "siteID": "KBLI",
                "name": "Bellingham Intl",
                "elev": 46,
                "priority": 3
            }
        },
        {
            "type": "Feature",
            "geometry": {
                "type": "Point",
                "coordinates": [
                    -89.845,
                    38.54
                ]
            },
            "properties": {
                "siteID": "KBLV",
                "name": "Belleville/Scott AFB",
                "elev": 134,
                "priority": 5
            }
        },
        {
            "type": "Feature",
            "geometry": {
                "type": "Point",
                "coordinates": [
                    -86.6168,
                    39.1432
                ]
            },
            "properties": {
                "siteID": "KBMG",
                "name": "Bloomington/Monroe Cnty",
                "elev": 254,
                "priority": 4
            }
        },
        {
            "type": "Feature",
            "geometry": {
                "type": "Point",
                "coordinates": [
                    -88.9144,
                    40.4777
                ]
            },
            "properties": {
                "siteID": "KBMI",
                "name": "Bloomington Rgnl",
                "elev": 262,
                "priority": 4
            }
        },
        {
            "type": "Feature",
            "geometry": {
                "type": "Point",
                "coordinates": [
                    -94.1273,
                    46.4021
                ]
            },
            "properties": {
                "siteID": "KBRD",
                "name": "Brainerd/Lakes Rgnl",
                "elev": 372,
                "priority": 3
            }
        },
        {
            "type": "Feature",
            "geometry": {
                "type": "Point",
                "coordinates": [
                    -85.2415,
                    42.3119
                ]
            },
            "properties": {
                "siteID": "KBTL",
                "name": "Battle Creek/Kellogg Fld Arpt",
                "elev": 282,
                "priority": 6
            }
        },
        {
            "type": "Feature",
            "geometry": {
                "type": "Point",
                "coordinates": [
                    -99.15,
                    41.777
                ]
            },
            "properties": {
                "siteID": "KBUB",
                "name": "Burwell/Cram Fld",
                "elev": 664,
                "priority": 9
            }
        },
        {
            "type": "Feature",
            "geometry": {
                "type": "Point",
                "coordinates": [
                    -122.419,
                    48.4696
                ]
            },
            "properties": {
                "siteID": "KBVS",
                "name": "Burlington/Skagit Rgnl",
                "elev": 31,
                "priority": 6
            }
        },
        {
            "type": "Feature",
            "geometry": {
                "type": "Point",
                "coordinates": [
                    -70.9153,
                    42.5841
                ]
            },
            "properties": {
                "siteID": "KBVY",
                "name": "Beverly Muni",
                "elev": 28,
                "priority": 5
            }
        },
        {
            "type": "Feature",
            "geometry": {
                "type": "Point",
                "coordinates": [
                    -96.6046,
                    46.2444
                ]
            },
            "properties": {
                "siteID": "KBWP",
                "name": "Breckenridge-Wahpeton/Stern Arpt",
                "elev": 294,
                "priority": 5
            }
        },
        {
            "type": "Feature",
            "geometry": {
                "type": "Point",
                "coordinates": [
                    -113.769,
                    42.5452
                ]
            },
            "properties": {
                "siteID": "KBYI",
                "name": "Burley Muni",
                "elev": 1263,
                "priority": 4
            }
        },
        {
            "type": "Feature",
            "geometry": {
                "type": "Point",
                "coordinates": [
                    -111.162,
                    45.7876
                ]
            },
            "properties": {
                "siteID": "KBZN",
                "name": "Bozeman/Gallatin Fld",
                "elev": 1349,
                "priority": 3
            }
        },
        {
            "type": "Feature",
            "geometry": {
                "type": "Point",
                "coordinates": [
                    -85.4207,
                    44.2785
                ]
            },
            "properties": {
                "siteID": "KCAD",
                "name": "Cadillac/Wexford Cnty",
                "elev": 397,
                "priority": 4
            }
        },
        {
            "type": "Feature",
            "geometry": {
                "type": "Point",
                "coordinates": [
                    -93.264,
                    45.557
                ]
            },
            "properties": {
                "siteID": "KCBG",
                "name": "Cambridge Muni",
                "elev": 285,
                "priority": 6
            }
        },
        {
            "type": "Feature",
            "geometry": {
                "type": "Point",
                "coordinates": [
                    -92.4748,
                    48.2601
                ]
            },
            "properties": {
                "siteID": "KCDD",
                "name": "Crane Lake Seaplane",
                "elev": 344,
                "priority": 4
            }
        },
        {
            "type": "Feature",
            "geometry": {
                "type": "Point",
                "coordinates": [
                    -103.098,
                    42.8374
                ]
            },
            "properties": {
                "siteID": "KCDR",
                "name": "Chadron Muni",
                "elev": 1002,
                "priority": 3
            }
        },
        {
            "type": "Feature",
            "geometry": {
                "type": "Point",
                "coordinates": [
                    -87.607,
                    41.861
                ]
            },
            "properties": {
                "siteID": "KCGX",
                "name": "Chicago/Meigs Fld",
                "elev": 181,
                "priority": 9
            }
        },
        {
            "type": "Feature",
            "geometry": {
                "type": "Point",
                "coordinates": [
                    -84.4773,
                    46.2531
                ]
            },
            "properties": {
                "siteID": "KCIU",
                "name": "Chippewa Cnty Intl",
                "elev": 242,
                "priority": 5
            }
        },
        {
            "type": "Feature",
            "geometry": {
                "type": "Point",
                "coordinates": [
                    -90.3864,
                    47.8366
                ]
            },
            "properties": {
                "siteID": "KCKC",
                "name": "Grand Marais Muni",
                "elev": 544,
                "priority": 5
            }
        },
        {
            "type": "Feature",
            "geometry": {
                "type": "Point",
                "coordinates": [
                    -96.6201,
                    47.8404
                ]
            },
            "properties": {
                "siteID": "KCKN",
                "name": "Crookston Muni",
                "elev": 272,
                "priority": 5
            }
        },
        {
            "type": "Feature",
            "geometry": {
                "type": "Point",
                "coordinates": [
                    -123.507,
                    48.1219
                ]
            },
            "properties": {
                "siteID": "KCLM",
                "name": "Port Angeles Intl",
                "elev": 81,
                "priority": 4
            }
        },
        {
            "type": "Feature",
            "geometry": {
                "type": "Point",
                "coordinates": [
                    -122.986,
                    46.6774
                ]
            },
            "properties": {
                "siteID": "KCLS",
                "name": "Chehalis-Centralia Arpt",
                "elev": 52,
                "priority": 5
            }
        },
        {
            "type": "Feature",
            "geometry": {
                "type": "Point",
                "coordinates": [
                    -88.2755,
                    40.0324
                ]
            },
            "properties": {
                "siteID": "KCMI",
                "name": "Champaign/Willard Arpt",
                "elev": 227,
                "priority": 3
            }
        },
        {
            "type": "Feature",
            "geometry": {
                "type": "Point",
                "coordinates": [
                    -116.833,
                    47.7719
                ]
            },
            "properties": {
                "siteID": "KCOE",
                "name": "Coeur DAlene Arpt",
                "elev": 693,
                "priority": 5
            }
        },
        {
            "type": "Feature",
            "geometry": {
                "type": "Point",
                "coordinates": [
                    -92.5034,
                    46.6986
                ]
            },
            "properties": {
                "siteID": "KCOQ",
                "name": "Cloquet/Carlton Cnty",
                "elev": 390,
                "priority": 6
            }
        },
        {
            "type": "Feature",
            "geometry": {
                "type": "Point",
                "coordinates": [
                    -92.6817,
                    47.8199
                ]
            },
            "properties": {
                "siteID": "KCQM",
                "name": "Cook Muni",
                "elev": 406,
                "priority": 5
            }
        },
        {
            "type": "Feature",
            "geometry": {
                "type": "Point",
                "coordinates": [
                    -123.293,
                    44.5013
                ]
            },
            "properties": {
                "siteID": "KCVO",
                "name": "Corvallis Muni",
                "elev": 75,
                "priority": 5
            }
        },
        {
            "type": "Feature",
            "geometry": {
                "type": "Point",
                "coordinates": [
                    -89.671,
                    44.7795
                ]
            },
            "properties": {
                "siteID": "KCWA",
                "name": "Mosinee/C Wisconsin Arpt",
                "elev": 387,
                "priority": 6
            }
        },
        {
            "type": "Feature",
            "geometry": {
                "type": "Point",
                "coordinates": [
                    -90.3328,
                    41.8295
                ]
            },
            "properties": {
                "siteID": "KCWI",
                "name": "Clinton Muni",
                "elev": 212,
                "priority": 5
            }
        },
        {
            "type": "Feature",
            "geometry": {
                "type": "Point",
                "coordinates": [
                    -76.8552,
                    40.2184
                ]
            },
            "properties": {
                "siteID": "KCXY",
                "name": "Harrisburg/Capital City Arpt",
                "elev": 102,
                "priority": 7
            }
        },
        {
            "type": "Feature",
            "geometry": {
                "type": "Point",
                "coordinates": [
                    -100.005,
                    40.869
                ]
            },
            "properties": {
                "siteID": "KCZD",
                "name": "Cozad Muni",
                "elev": 800,
                "priority": 9
            }
        },
        {
            "type": "Feature",
            "geometry": {
                "type": "Point",
                "coordinates": [
                    -121.879,
                    45.676
                ]
            },
            "properties": {
                "siteID": "KCZK",
                "name": "Cascade Locks State Arpt",
                "elev": 46,
                "priority": 4
            }
        },
        {
            "type": "Feature",
            "geometry": {
                "type": "Point",
                "coordinates": [
                    -102.02,
                    45.0326
                ]
            },
            "properties": {
                "siteID": "KD07",
                "name": "Faith Muni",
                "elev": 786,
                "priority": 4
            }
        },
        {
            "type": "Feature",
            "geometry": {
                "type": "Point",
                "coordinates": [
                    -103.296,
                    48.9248
                ]
            },
            "properties": {
                "siteID": "KD50",
                "name": "Crosby Muni",
                "elev": 591,
                "priority": 5
            }
        },
        {
            "type": "Feature",
            "geometry": {
                "type": "Point",
                "coordinates": [
                    -98.3971,
                    48.7519
                ]
            },
            "properties": {
                "siteID": "KD55",
                "name": "Langdon/Roberts Fld",
                "elev": 488,
                "priority": 5
            }
        },
        {
            "type": "Feature",
            "geometry": {
                "type": "Point",
                "coordinates": [
                    -102.898,
                    48.3834
                ]
            },
            "properties": {
                "siteID": "KD60",
                "name": "Tioga Muni",
                "elev": 682,
                "priority": 5
            }
        },
        {
            "type": "Feature",
            "geometry": {
                "type": "Point",
                "coordinates": [
                    -88.8719,
                    39.8308
                ]
            },
            "properties": {
                "siteID": "KDEC",
                "name": "Decatur Arpt",
                "elev": 205,
                "priority": 4
            }
        },
        {
            "type": "Feature",
            "geometry": {
                "type": "Point",
                "coordinates": [
                    -83.009,
                    42.4072
                ]
            },
            "properties": {
                "siteID": "KDET",
                "name": "Detroit/C Young Arpt",
                "elev": 190,
                "priority": 5
            }
        },
        {
            "type": "Feature",
            "geometry": {
                "type": "Point",
                "coordinates": [
                    -121.166,
                    45.619
                ]
            },
            "properties": {
                "siteID": "KDLS",
                "name": "The Dalles Muni",
                "elev": 71,
                "priority": 3
            }
        },
        {
            "type": "Feature",
            "geometry": {
                "type": "Point",
                "coordinates": [
                    -87.5897,
                    40.2032
                ]
            },
            "properties": {
                "siteID": "KDNV",
                "name": "Danville/Vermillion Rgnl",
                "elev": 208,
                "priority": 4
            }
        },
        {
            "type": "Feature",
            "geometry": {
                "type": "Point",
                "coordinates": [
                    -88.2512,
                    41.8964
                ]
            },
            "properties": {
                "siteID": "KDPA",
                "name": "Dupage Cnty Arpt",
                "elev": 228,
                "priority": 6
            }
        },
        {
            "type": "Feature",
            "geometry": {
                "type": "Point",
                "coordinates": [
                    -95.8857,
                    46.8286
                ]
            },
            "properties": {
                "siteID": "KDTL",
                "name": "Detroit Lakes Arpt",
                "elev": 425,
                "priority": 5
            }
        },
        {
            "type": "Feature",
            "geometry": {
                "type": "Point",
                "coordinates": [
                    -78.8933,
                    41.1795
                ]
            },
            "properties": {
                "siteID": "KDUJ",
                "name": "Du Bois Rgnl",
                "elev": 552,
                "priority": 4
            }
        },
        {
            "type": "Feature",
            "geometry": {
                "type": "Point",
                "coordinates": [
                    -98.9034,
                    48.1136
                ]
            },
            "properties": {
                "siteID": "KDVL",
                "name": "Devils Lake Rgnl",
                "elev": 439,
                "priority": 3
            }
        },
        {
            "type": "Feature",
            "geometry": {
                "type": "Point",
                "coordinates": [
                    -96.1789,
                    44.9839
                ]
            },
            "properties": {
                "siteID": "KDXX",
                "name": "Madison/Lac Qui Parle Cnty",
                "elev": 327,
                "priority": 5
            }
        },
        {
            "type": "Feature",
            "geometry": {
                "type": "Point",
                "coordinates": [
                    -92.0438,
                    46.7231
                ]
            },
            "properties": {
                "siteID": "KDYT",
                "name": "Duluth/Sky Harbor Arpt",
                "elev": 185,
                "priority": 6
            }
        },
        {
            "type": "Feature",
            "geometry": {
                "type": "Point",
                "coordinates": [
                    -99.0086,
                    40.7193
                ]
            },
            "properties": {
                "siteID": "KEAR",
                "name": "Kearney Rgnl",
                "elev": 649,
                "priority": 4
            }
        },
        {
            "type": "Feature",
            "geometry": {
                "type": "Point",
                "coordinates": [
                    -120.201,
                    47.3975
                ]
            },
            "properties": {
                "siteID": "KEAT",
                "name": "Wenatchee/Pangborn Mem",
                "elev": 375,
                "priority": 3
            }
        },
        {
            "type": "Feature",
            "geometry": {
                "type": "Point",
                "coordinates": [
                    -91.4881,
                    44.8665
                ]
            },
            "properties": {
                "siteID": "KEAU",
                "name": "Eau Claire/Chippewa Valley Rgnl",
                "elev": 271,
                "priority": 3
            }
        },
        {
            "type": "Feature",
            "geometry": {
                "type": "Point",
                "coordinates": [
                    -72.2695,
                    42.898
                ]
            },
            "properties": {
                "siteID": "KEEN",
                "name": "Keene/Hopkins Arpt",
                "elev": 143,
                "priority": 4
            }
        },
        {
            "type": "Feature",
            "geometry": {
                "type": "Point",
                "coordinates": [
                    -88.55,
                    44.22
                ]
            },
            "properties": {
                "siteID": "KEEW",
                "name": "Neenah",
                "elev": 275,
                "priority": 9
            }
        },
        {
            "type": "Feature",
            "geometry": {
                "type": "Point",
                "coordinates": [
                    -103.861,
                    44.734
                ]
            },
            "properties": {
                "siteID": "KEFC",
                "name": "Belle Fourche Muni",
                "elev": 968,
                "priority": 9
            }
        },
        {
            "type": "Feature",
            "geometry": {
                "type": "Point",
                "coordinates": [
                    -86,
                    41.7222
                ]
            },
            "properties": {
                "siteID": "KEKM",
                "name": "Elkhart Muni",
                "elev": 236,
                "priority": 5
            }
        },
        {
            "type": "Feature",
            "geometry": {
                "type": "Point",
                "coordinates": [
                    -76.89,
                    42.1601
                ]
            },
            "properties": {
                "siteID": "KELM",
                "name": "Elmira-Corning Rgnl",
                "elev": 287,
                "priority": 4
            }
        },
        {
            "type": "Feature",
            "geometry": {
                "type": "Point",
                "coordinates": [
                    -120.531,
                    47.0338
                ]
            },
            "properties": {
                "siteID": "KELN",
                "name": "Ellensburg/Bowers Fld",
                "elev": 532,
                "priority": 5
            }
        },
        {
            "type": "Feature",
            "geometry": {
                "type": "Point",
                "coordinates": [
                    -91.8371,
                    47.8287
                ]
            },
            "properties": {
                "siteID": "KELO",
                "name": "Ely Muni",
                "elev": 438,
                "priority": 4
            }
        },
        {
            "type": "Feature",
            "geometry": {
                "type": "Point",
                "coordinates": [
                    -67,
                    44.92
                ]
            },
            "properties": {
                "siteID": "KEPO",
                "name": "Eastport",
                "elev": 23,
                "priority": 9
            }
        },
        {
            "type": "Feature",
            "geometry": {
                "type": "Point",
                "coordinates": [
                    -94.7476,
                    43.4008
                ]
            },
            "properties": {
                "siteID": "KEST",
                "name": "Estherville Muni",
                "elev": 401,
                "priority": 5
            }
        },
        {
            "type": "Feature",
            "geometry": {
                "type": "Point",
                "coordinates": [
                    -96.5461,
                    45.7828
                ]
            },
            "properties": {
                "siteID": "KETH",
                "name": "Wheaton Muni",
                "elev": 309,
                "priority": 5
            }
        },
        {
            "type": "Feature",
            "geometry": {
                "type": "Point",
                "coordinates": [
                    -92.4972,
                    47.4274
                ]
            },
            "properties": {
                "siteID": "KEVM",
                "name": "Eveleth Muni",
                "elev": 419,
                "priority": 5
            }
        },
        {
            "type": "Feature",
            "geometry": {
                "type": "Point",
                "coordinates": [
                    -111.031,
                    41.2727
                ]
            },
            "properties": {
                "siteID": "KEVW",
                "name": "Evanston/Uinta Cnty",
                "elev": 2178,
                "priority": 4
            }
        },
        {
            "type": "Feature",
            "geometry": {
                "type": "Point",
                "coordinates": [
                    -70.9591,
                    41.6791
                ]
            },
            "properties": {
                "siteID": "KEWB",
                "name": "New Bedford Rgnl",
                "elev": 22,
                "priority": 4
            }
        },
        {
            "type": "Feature",
            "geometry": {
                "type": "Point",
                "coordinates": [
                    -93.3119,
                    44.3298
                ]
            },
            "properties": {
                "siteID": "KFBL",
                "name": "Faribault Muni",
                "elev": 318,
                "priority": 5
            }
        },
        {
            "type": "Feature",
            "geometry": {
                "type": "Point",
                "coordinates": [
                    -93.4705,
                    44.8321
                ]
            },
            "properties": {
                "siteID": "KFCM",
                "name": "Eden Prairie/Flying",
                "elev": 276,
                "priority": 6
            }
        },
        {
            "type": "Feature",
            "geometry": {
                "type": "Point",
                "coordinates": [
                    -83.6681,
                    41.0137
                ]
            },
            "properties": {
                "siteID": "KFDY",
                "name": "Findlay Arpt",
                "elev": 247,
                "priority": 4
            }
        },
        {
            "type": "Feature",
            "geometry": {
                "type": "Point",
                "coordinates": [
                    -96.1534,
                    46.2865
                ]
            },
            "properties": {
                "siteID": "KFFM",
                "name": "Fergus Falls/Mickelson Fld",
                "elev": 362,
                "priority": 4
            }
        },
        {
            "type": "Feature",
            "geometry": {
                "type": "Point",
                "coordinates": [
                    -94.902,
                    49.318
                ]
            },
            "properties": {
                "siteID": "KFGN",
                "name": "Flag Island",
                "elev": 327,
                "priority": 4
            }
        },
        {
            "type": "Feature",
            "geometry": {
                "type": "Point",
                "coordinates": [
                    -123.026,
                    48.52
                ]
            },
            "properties": {
                "siteID": "KFHR",
                "name": "Friday Harbor Arpt",
                "elev": 34,
                "priority": 5
            }
        },
        {
            "type": "Feature",
            "geometry": {
                "type": "Point",
                "coordinates": [
                    -79.8603,
                    41.3806
                ]
            },
            "properties": {
                "siteID": "KFKL",
                "name": "Franklin/Lamberton Fld",
                "elev": 468,
                "priority": 4
            }
        },
        {
            "type": "Feature",
            "geometry": {
                "type": "Point",
                "coordinates": [
                    -70.5221,
                    41.6608
                ]
            },
            "properties": {
                "siteID": "KFMH",
                "name": "Otis ANGB",
                "elev": 35,
                "priority": 5
            }
        },
        {
            "type": "Feature",
            "geometry": {
                "type": "Point",
                "coordinates": [
                    -95.5893,
                    40.0791
                ]
            },